
[{"id":"1","spot_name":"九份遊客中心","type":"NewTaipei","company":"中華電信","district":"瑞芳區","address":"新北市瑞芳區汽車路89號1樓","apparatus_name":"新北市政府觀光旅遊局","latitude":"25.110636","longitude":"121.845015","twd97X":"335066.01","twd97Y":"2778199.77","wgs84aX":"121.843469753933","wgs84aY":"25.1097526387507"},{"id":"2","spot_name":"九份輕便路遊客中心","type":"NewTaipei","company":"中華電信","district":"瑞芳區","address":"新北市瑞芳區輕便路194號2樓","apparatus_name":"新北市政府觀光旅遊局","latitude":"25.108806000000001","longitude":"121.844812","twd97X":"335259.25","twd97Y":"2778271.31","wgs84aX":"121.845390104912","wgs84aY":"25.1103874693257"},{"id":"3","spot_name":"水金九-九份(商圈辦公室)","type":"NewTaipei","company":"磐石寬頻","district":"瑞芳區","address":"新北市瑞芳區豎崎路15號","apparatus_name":"新北市政府觀光旅遊局","latitude":"25.108177999999999","longitude":"121.84356699999999","twd97X":"335021","twd97Y":"2778189","wgs84aX":"121.843022672","wgs84aY":"25.1096579284"},{"id":"4","spot_name":"水金九-水湳洞","type":"NewTaipei","company":"磐石寬頻","district":"瑞芳區","address":"新北市瑞芳區金光路8號","apparatus_name":"新北市政府","latitude":"25.108415999999998","longitude":"121.856196","twd97X":"336675.92","twd97Y":"2777822.89","wgs84aX":"121.859407569972","wgs84aY":"25.1062588010368"},{"id":"5","spot_name":"水金九-黃金博物館","type":"NewTaipei","company":"磐石寬頻","district":"瑞芳區","address":"新北市瑞芳區洞頂路155之8號","apparatus_name":"新北市政府","latitude":"25.122478000000001","longitude":"121.861187","twd97X":"336864.99","twd97Y":"2779525.28","wgs84aX":"121.861389723362","wgs84aY":"25.1216157491335"},{"id":"6","spot_name":"坪林旅遊服務中心","type":"NewTaipei","company":"中華電信","district":"坪林區","address":"新北市坪林區水柳腳187-1號2F","apparatus_name":"新北市政府觀光旅遊局","latitude":"24.937738","longitude":"121.702189","twd97X":"321880.93","twd97Y":"2758895.24","wgs84aX":"121.711736266","wgs84aY":"24.9361640373"},{"id":"7","spot_name":"板橋火車站旅遊服務中心","type":"NewTaipei","company":"中華電信","district":"板橋區","address":"新北市板橋區縣民大道2段7號B1","apparatus_name":"新北市政府觀光旅遊局","latitude":"25.013878999999999","longitude":"121.46401","twd97X":"296794.35","twd97Y":"2767444.99","wgs84aX":"121.463636313393","wgs84aY":"25.0143313422875"},{"id":"8","spot_name":"板橋府前廣場-市民廣場筍燈西側Tower","type":"NewTaipei","company":"中華電信","district":"板橋區","address":"新北市板橋區縣民大道二段22號筍燈西側","apparatus_name":"新北市板橋區公所","latitude":"25.013662","longitude":"121.464705","twd97X":"296978.24","twd97Y":"2767277.17","wgs84aX":"121.465452597207","wgs84aY":"25.012810573596"},{"id":"9","spot_name":"板橋府前廣場-市民廣場筍燈東側Tower","type":"NewTaipei","company":"中華電信","district":"板橋區","address":"新北市板橋區縣民大道二段22號筍燈東側","apparatus_name":"新北市板橋區公所","latitude":"25.013662","longitude":"121.464705","twd97X":"296978.24","twd97Y":"2767277.17","wgs84aX":"121.465452597207","wgs84aY":"25.012810573596"},{"id":"10","spot_name":"板橋府前廣場-新北市政府廣場西側天橋-1","type":"NewTaipei","company":"中華電信","district":"板橋區","address":"新北市板橋區縣民大道二段22號西側天橋","apparatus_name":"新北市板橋區公所","latitude":"25.013662","longitude":"121.464705","twd97X":"296978.24","twd97Y":"2767277.17","wgs84aX":"121.465452597207","wgs84aY":"25.012810573596"},{"id":"11","spot_name":"板橋府前廣場-新北市政府廣場西側天橋-2","type":"NewTaipei","company":"中華電信","district":"板橋區","address":"新北市板橋區縣民大道二段22號西側天橋","apparatus_name":"新北市板橋區公所","latitude":"25.013662","longitude":"121.464705","twd97X":"296978.24","twd97Y":"2767277.17","wgs84aX":"121.465452597207","wgs84aY":"25.012810573596"},{"id":"12","spot_name":"板橋府前廣場-新北市政府廣場西側天橋-3","type":"NewTaipei","company":"中華電信","district":"板橋區","address":"新北市板橋區縣民大道二段22號西側天橋","apparatus_name":"新北市板橋區公所","latitude":"25.013662","longitude":"121.464705","twd97X":"296978.24","twd97Y":"2767277.17","wgs84aX":"121.465452597207","wgs84aY":"25.012810573596"},{"id":"13","spot_name":"板橋府前廣場-新北市政府廣場東側天橋-1","type":"NewTaipei","company":"中華電信","district":"板橋區","address":"新北市板橋區縣民大道二段22號東側天橋","apparatus_name":"新北市板橋區公所","latitude":"25.013662","longitude":"121.464705","twd97X":"296978.24","twd97Y":"2767277.17","wgs84aX":"121.465452597207","wgs84aY":"25.012810573596"},{"id":"14","spot_name":"板橋府前廣場-新北市政府廣場東側天橋-2","type":"NewTaipei","company":"中華電信","district":"板橋區","address":"新北市板橋區縣民大道二段22號東側天橋","apparatus_name":"新北市板橋區公所","latitude":"25.013662","longitude":"121.464705","twd97X":"296978.24","twd97Y":"2767277.17","wgs84aX":"121.465452597207","wgs84aY":"25.012810573596"},{"id":"15","spot_name":"板橋府前廣場-新北市政府廣場東側天橋-3","type":"NewTaipei","company":"中華電信","district":"板橋區","address":"新北市板橋區縣民大道二段22號東側天橋","apparatus_name":"新北市板橋區公所","latitude":"25.013662","longitude":"121.464705","twd97X":"296978.24","twd97Y":"2767277.17","wgs84aX":"121.465452597207","wgs84aY":"25.012810573596"},{"id":"16","spot_name":"板橋府前廣場-新北市政府廣場門口控制室上","type":"NewTaipei","company":"中華電信","district":"板橋區","address":"新北市板橋區縣民大道二段22號B1F","apparatus_name":"新北市板橋區公所","latitude":"25.013662","longitude":"121.464705","twd97X":"296978.24","twd97Y":"2767277.17","wgs84aX":"121.465452597207","wgs84aY":"25.012810573596"},{"id":"17","spot_name":"板橋第一運動場1F","type":"NewTaipei","company":"中華電信","district":"板橋區","address":"新北市板橋區漢生東路278號1樓","apparatus_name":"新北市政府教育局","latitude":"25.010553999999999","longitude":"121.469072","twd97X":"297366.57","twd97Y":"2767032.66","wgs84aX":"121.469291615834","wgs84aY":"25.010591061878"},{"id":"18","spot_name":"板橋第一運動場1F(體育文物館)","type":"NewTaipei","company":"中華電信","district":"板橋區","address":"新北市板橋區漢生東路278號1樓","apparatus_name":"新北市政府教育局","latitude":"25.010553999999999","longitude":"121.469072","twd97X":"297366.57","twd97Y":"2767032.66","wgs84aX":"121.469291615834","wgs84aY":"25.010591061878"},{"id":"19","spot_name":"烏來遊客中心","type":"NewTaipei","company":"中華電信","district":"烏來區","address":"新北市烏來區烏來街45-1號1F","apparatus_name":"新北市政府觀光旅遊局","latitude":"24.864433999999999","longitude":"121.551768","twd97X":"305781.13","twd97Y":"2750912.72","wgs84aX":"121.552008563769","wgs84aY":"24.8647732102273"},{"id":"20","spot_name":"烏來瀑布遊客中心","type":"NewTaipei","company":"中華電信","district":"烏來區","address":"新北市烏來區烏來村瀑布路34號1樓","apparatus_name":"新北市政府觀光旅遊局","latitude":"24.848794999999999","longitude":"121.551784","twd97X":"305771","twd97Y":"2749600","wgs84aX":"121.551855685","wgs84aY":"24.8529221343"},{"id":"21","spot_name":"淡水小白宮服務中心","type":"NewTaipei","company":"中華電信","district":"淡水區","address":"新北市淡水區真理街15號","apparatus_name":"新北市立淡水古蹟博物館","latitude":"25.174147000000001","longitude":"121.436386","twd97X":"293981.85","twd97Y":"2785127.58","wgs84aX":"121.436336758422","wgs84aY":"25.1740541195661"},{"id":"22","spot_name":"淡水紅毛城服務中心-1","type":"NewTaipei","company":"中華電信","district":"淡水區","address":"新北市淡水區中正路28巷1號","apparatus_name":"新北市立淡水古蹟博物館","latitude":"25.175349000000001","longitude":"121.432931","twd97X":"293681.9","twd97Y":"2785192.84","wgs84aX":"121.433363152787","wgs84aY":"25.1746520802522"},{"id":"23","spot_name":"淡水紅毛城服務中心-2","type":"NewTaipei","company":"中華電信","district":"淡水區","address":"新北市淡水區中正路28巷1號","apparatus_name":"新北市立淡水古蹟博物館","latitude":"25.175349000000001","longitude":"121.432931","twd97X":"293681.9","twd97Y":"2785192.84","wgs84aX":"121.433363152787","wgs84aY":"25.1746520802522"},{"id":"24","spot_name":"淡水紅毛城紅城小舖","type":"NewTaipei","company":"中華電信","district":"淡水區","address":"新北市淡水區中正路28巷1號","apparatus_name":"新北市立淡水古蹟博物館","latitude":"25.175349000000001","longitude":"121.432931","twd97X":"293681.9","twd97Y":"2785192.84","wgs84aX":"121.433363152787","wgs84aY":"25.1746520802522"},{"id":"25","spot_name":"淡水紅毛城票亭","type":"NewTaipei","company":"中華電信","district":"淡水區","address":"新北市淡水區中正路28巷1號","apparatus_name":"新北市立淡水古蹟博物館","latitude":"25.175349000000001","longitude":"121.432931","twd97X":"293681.9","twd97Y":"2785192.84","wgs84aX":"121.433363152787","wgs84aY":"25.1746520802522"},{"id":"26","spot_name":"淡水海關碼頭洋樓","type":"NewTaipei","company":"中華電信","district":"淡水區","address":"新北市淡水區中正路259號","apparatus_name":"新北市立淡水古蹟博物館","latitude":"25.174527999999999","longitude":"121.431753","twd97X":"293528.4","twd97Y":"2785195.63","wgs84aX":"121.431840403582","wgs84aY":"25.1746817226665"},{"id":"27","spot_name":"淡水捷運站旅遊服務中心","type":"NewTaipei","company":"中華電信","district":"淡水區","address":"新北市淡水區中正路1號1樓","apparatus_name":"新北市政府觀光旅遊局","latitude":"25.175578600000001","longitude":"121.43847","twd97X":"294913.1","twd97Y":"2784485.72","wgs84aX":"121.445554275421","wgs84aY":"25.168231930328"},{"id":"28","spot_name":"淡水滬尾砲台服務中心","type":"NewTaipei","company":"中華電信","district":"淡水區","address":"新北市淡水區中正路1段6巷34-1號","apparatus_name":"新北市立淡水古蹟博物館","latitude":"25.178781000000001","longitude":"121.429636","twd97X":"293363.07","twd97Y":"2785710.05","wgs84aX":"121.430216531647","wgs84aY":"25.1793306373577"},{"id":"29","spot_name":"深澳漁港直銷餐廳","type":"NewTaipei","company":"中華電信","district":"瑞芳區","address":"新北市瑞芳區深澳路16-7號2F","apparatus_name":"新北巿政府漁業及漁港事業管理處","latitude":"25.132203000000001","longitude":"121.81971","twd97X":"332596.97","twd97Y":"2780527.66","wgs84aX":"121.819130158749","wgs84aY":"25.1309043912212"},{"id":"30","spot_name":"新北市三重區綜合運動場-1","type":"NewTaipei","company":"中華電信","district":"三重區","address":"新北市三重區新北大道1段11號","apparatus_name":"新北市三重區公所","latitude":"25.061154999999999","longitude":"121.48837","twd97X":"299275.03","twd97Y":"2772645.07","wgs84aX":"121.488400051566","wgs84aY":"25.0611990463588"},{"id":"31","spot_name":"新北市三重區綜合運動場-2","type":"NewTaipei","company":"中華電信","district":"三重區","address":"新北市三重區新北大道1段11號","apparatus_name":"新北市三重區公所","latitude":"25.061154999999999","longitude":"121.48837","twd97X":"299275.03","twd97Y":"2772645.07","wgs84aX":"121.488400051566","wgs84aY":"25.0611990463588"},{"id":"32","spot_name":"猴硐遊客中心","type":"NewTaipei","company":"中華電信","district":"瑞芳區","address":"新北市瑞芳區柴寮路44號1樓","apparatus_name":"新北市政府觀光旅遊局","latitude":"25.086970999999998","longitude":"121.827484","twd97X":"333492.62","twd97Y":"2775660.99","wgs84aX":"121.827715913977","wgs84aY":"25.0869221994297"},{"id":"33","spot_name":"新北市八里區公所1F-1","type":"NewTaipei","company":"中華電信","district":"八里區","address":"新北市八里區中山路2段356巷16號1樓","apparatus_name":"新北市八里區公所","latitude":"25.149357999999999","longitude":"121.401419","twd97X":"290473.34","twd97Y":"2782383.33","wgs84aX":"121.401448969726","wgs84aY":"25.1493776934637"},{"id":"34","spot_name":"新北市八里區公所1F-2_A","type":"NewTaipei","company":"中華電信","district":"八里區","address":"新北市八里區中山路2段356巷16號1樓","apparatus_name":"新北市八里區公所","latitude":"25.149314","longitude":"121.401442","twd97X":"290473.34","twd97Y":"2782383.33","wgs84aX":"121.401448969726","wgs84aY":"25.1493776934637"},{"id":"35","spot_name":"新北市八里區公所1F-2_B","type":"NewTaipei","company":"中華電信","district":"八里區","address":"新北市八里區中山路2段356巷16號1樓","apparatus_name":"新北市八里區公所","latitude":"25.149314","longitude":"121.401442","twd97X":"290473.34","twd97Y":"2782383.33","wgs84aX":"121.401448969726","wgs84aY":"25.1493776934637"},{"id":"36","spot_name":"新北市八里區公所2F_A","type":"NewTaipei","company":"中華電信","district":"八里區","address":"新北市八里區中山路2段356巷16號2樓","apparatus_name":"新北市八里區公所","latitude":"25.149314","longitude":"121.401442","twd97X":"290473.34","twd97Y":"2782383.33","wgs84aX":"121.401448969726","wgs84aY":"25.1493776934637"},{"id":"37","spot_name":"新北市八里區公所2F_B","type":"NewTaipei","company":"中華電信","district":"八里區","address":"新北市八里區中山路2段356巷16號2樓","apparatus_name":"新北市八里區公所","latitude":"25.149314","longitude":"121.401442","twd97X":"290473.34","twd97Y":"2782383.33","wgs84aX":"121.401448969726","wgs84aY":"25.1493776934637"},{"id":"38","spot_name":"新北市八里區衛生所","type":"NewTaipei","company":"中華電信","district":"八里區","address":"新北市八里區舊城里舊城路16號1樓","apparatus_name":"新北市政府衛生局","latitude":"25.147203999999999","longitude":"121.399739","twd97X":"290334.21","twd97Y":"2782130.07","wgs84aX":"121.400061506449","wgs84aY":"25.1470949605732"},{"id":"39","spot_name":"新北市三芝區公所","type":"NewTaipei","company":"中華電信","district":"三芝區","address":"新北市三芝區中山路1段32號1樓","apparatus_name":"新北市三芝區公所","latitude":"25.257766","longitude":"121.500872","twd97X":"300476.89","twd97Y":"2794431.06","wgs84aX":"121.501115083352","wgs84aY":"25.2578398358784"},{"id":"40","spot_name":"新北市三芝區衛生所","type":"NewTaipei","company":"中華電信","district":"三芝區","address":"新北市三芝區中山路1段12號1樓","apparatus_name":"新北市政府衛生局","latitude":"25.258357","longitude":"121.500569","twd97X":"300440.21","twd97Y":"2794493.86","wgs84aX":"121.50075327194","wgs84aY":"25.2584080668858"},{"id":"41","spot_name":"新北市三重戶政事務所-1","type":"NewTaipei","company":"中華電信","district":"三重區","address":"新北市三重區新北大道1段9號5樓","apparatus_name":"新北市政府民政局","latitude":"25.06099","longitude":"121.48916699999999","twd97X":"299356.35","twd97Y":"2772638.72","wgs84aX":"121.489205775958","wgs84aY":"25.0611390641064"},{"id":"42","spot_name":"新北市三重戶政事務所-2","type":"NewTaipei","company":"中華電信","district":"三重區","address":"新北市三重區新北大道1段9號5樓","apparatus_name":"新北市政府民政局","latitude":"25.06099","longitude":"121.48916699999999","twd97X":"299356.35","twd97Y":"2772638.72","wgs84aX":"121.489205775958","wgs84aY":"25.0611390641064"},{"id":"43","spot_name":"新北市三重戶政事務所溪美辦事處","type":"NewTaipei","company":"中華電信","district":"三重區","address":"新北市三重區溪尾街73號2樓","apparatus_name":"新北市政府民政局","latitude":"25.077693","longitude":"121.490849","twd97X":"299490.09","twd97Y":"2774490.9","wgs84aX":"121.490597912466","wgs84aY":"25.0778561462144"},{"id":"44","spot_name":"新北市三重地政事務所8F_A","type":"NewTaipei","company":"中華電信","district":"三重區","address":"新北市三重區新北大道1段11號8樓","apparatus_name":"新北市政府地政局","latitude":"25.060880999999998","longitude":"121.488336","twd97X":"299275.03","twd97Y":"2772645.07","wgs84aX":"121.488400051566","wgs84aY":"25.0611990463588"},{"id":"45","spot_name":"新北市三重地政事務所8F_B","type":"NewTaipei","company":"中華電信","district":"三重區","address":"新北市三重區新北大道1段11號8樓","apparatus_name":"新北市政府地政局","latitude":"25.060880999999998","longitude":"121.488336","twd97X":"299275.03","twd97Y":"2772645.07","wgs84aX":"121.488400051566","wgs84aY":"25.0611990463588"},{"id":"46","spot_name":"新北市三重地政事務所9F_A","type":"NewTaipei","company":"中華電信","district":"三重區","address":"新北市三重區新北大道1段11號9樓","apparatus_name":"新北市政府地政局","latitude":"25.060880999999998","longitude":"121.488336","twd97X":"299275.03","twd97Y":"2772645.07","wgs84aX":"121.488400051566","wgs84aY":"25.0611990463588"},{"id":"47","spot_name":"新北市三重地政事務所9F_B","type":"NewTaipei","company":"中華電信","district":"三重區","address":"新北市三重區新北大道1段11號9樓","apparatus_name":"新北市政府地政局","latitude":"25.060880999999998","longitude":"121.488336","twd97X":"299275.03","twd97Y":"2772645.07","wgs84aX":"121.488400051566","wgs84aY":"25.0611990463588"},{"id":"48","spot_name":"新北市三重區公所1F_A","type":"NewTaipei","company":"中華電信","district":"三重區","address":"新北市三重區新北大道1段11號1樓","apparatus_name":"新北市三重區公所","latitude":"25.061018000000001","longitude":"121.488274","twd97X":"299275.03","twd97Y":"2772645.07","wgs84aX":"121.488400051566","wgs84aY":"25.0611990463588"},{"id":"49","spot_name":"新北市三重區公所1F_B","type":"NewTaipei","company":"中華電信","district":"三重區","address":"新北市三重區新北大道1段11號1樓","apparatus_name":"新北市三重區公所","latitude":"25.061018000000001","longitude":"121.488274","twd97X":"299275.03","twd97Y":"2772645.07","wgs84aX":"121.488400051566","wgs84aY":"25.0611990463588"},{"id":"50","spot_name":"新北市三重區公所4F","type":"NewTaipei","company":"中華電信","district":"三重區","address":"新北市三重區新北大道1段11號4樓","apparatus_name":"新北市三重區公所","latitude":"25.061018000000001","longitude":"121.488274","twd97X":"299275.03","twd97Y":"2772645.07","wgs84aX":"121.488400051566","wgs84aY":"25.0611990463588"},{"id":"51","spot_name":"新北市三重區公所5F_A","type":"NewTaipei","company":"中華電信","district":"三重區","address":"新北市三重區新北大道1段11號","apparatus_name":"新北市三重區公所","latitude":"25.061254000000002","longitude":"121.48835099999999","twd97X":"299275.03","twd97Y":"2772645.07","wgs84aX":"121.488400051566","wgs84aY":"25.0611990463588"},{"id":"52","spot_name":"新北市三重區公所5F_B","type":"NewTaipei","company":"中華電信","district":"三重區","address":"新北市三重區新北大道1段11號","apparatus_name":"新北市三重區公所","latitude":"25.061254000000002","longitude":"121.48835099999999","twd97X":"299275.03","twd97Y":"2772645.07","wgs84aX":"121.488400051566","wgs84aY":"25.0611990463588"},{"id":"53","spot_name":"新北市三重區公所6F_A","type":"NewTaipei","company":"中華電信","district":"三重區","address":"新北市三重區新北大道1段11號","apparatus_name":"新北市三重區公所","latitude":"25.061254000000002","longitude":"121.48835099999999","twd97X":"299275.03","twd97Y":"2772645.07","wgs84aX":"121.488400051566","wgs84aY":"25.0611990463588"},{"id":"54","spot_name":"新北市三重區公所6F_B","type":"NewTaipei","company":"中華電信","district":"三重區","address":"新北市三重區新北大道1段11號","apparatus_name":"新北市三重區公所","latitude":"25.061254000000002","longitude":"121.48835099999999","twd97X":"299275.03","twd97Y":"2772645.07","wgs84aX":"121.488400051566","wgs84aY":"25.0611990463588"},{"id":"55","spot_name":"新北市三重區衛生所","type":"NewTaipei","company":"中華電信","district":"三重區","address":"新北市三重區新北大道1段1號1樓","apparatus_name":"新北市政府衛生局","latitude":"25.061118","longitude":"121.491519","twd97X":"299576.93","twd97Y":"2772645.39","wgs84aX":"121.491392279679","wgs84aY":"25.0611920287974"},{"id":"56","spot_name":"新北市三重區調解委員會","type":"NewTaipei","company":"中華電信","district":"三重區","address":"新北市三重區新北大道1段9號","apparatus_name":"新北市三重區公所","latitude":"25.060998000000001","longitude":"121.488941","twd97X":"299356.35","twd97Y":"2772638.72","wgs84aX":"121.489205775958","wgs84aY":"25.0611390641064"},{"id":"57","spot_name":"新北市三重國民運動中心1F","type":"NewTaipei","company":"中華電信","district":"三重區","address":"新北市三重區集美街55號1F","apparatus_name":"新北市政府體育處","latitude":"25.054758","longitude":"121.48819899999999","twd97X":"299253.06","twd97Y":"2771918.78","wgs84aX":"121.488156286239","wgs84aY":"25.0546428197188"},{"id":"58","spot_name":"新北市三重國民運動中心2F","type":"NewTaipei","company":"中華電信","district":"三重區","address":"新北市三重區集美街55號2F","apparatus_name":"新北市政府體育處","latitude":"25.054758","longitude":"121.48819899999999","twd97X":"299253.06","twd97Y":"2771918.78","wgs84aX":"121.488156286239","wgs84aY":"25.0546428197188"},{"id":"59","spot_name":"新北市三重國民運動中心3F-1","type":"NewTaipei","company":"中華電信","district":"三重區","address":"新北市三重區集美街55號3F","apparatus_name":"新北市政府體育處","latitude":"25.054758","longitude":"121.48819899999999","twd97X":"299253.06","twd97Y":"2771918.78","wgs84aX":"121.488156286239","wgs84aY":"25.0546428197188"},{"id":"60","spot_name":"新北市三重國民運動中心3F-2","type":"NewTaipei","company":"中華電信","district":"三重區","address":"新北市三重區集美街55號3F","apparatus_name":"新北市政府體育處","latitude":"25.054758","longitude":"121.48819899999999","twd97X":"299253.06","twd97Y":"2771918.78","wgs84aX":"121.488156286239","wgs84aY":"25.0546428197188"},{"id":"61","spot_name":"新北市三重國民運動中心5F","type":"NewTaipei","company":"中華電信","district":"三重區","address":"新北市三重區集美街55號5F","apparatus_name":"新北市政府體育處","latitude":"25.054758","longitude":"121.48819899999999","twd97X":"299253.06","twd97Y":"2771918.78","wgs84aX":"121.488156286239","wgs84aY":"25.0546428197188"},{"id":"62","spot_name":"新北市三重國民運動中心7F","type":"NewTaipei","company":"中華電信","district":"三重區","address":"新北市三重區集美街55號7F","apparatus_name":"新北市政府體育處","latitude":"25.054758","longitude":"121.48819899999999","twd97X":"299253.06","twd97Y":"2771918.78","wgs84aX":"121.488156286239","wgs84aY":"25.0546428197188"},{"id":"63","spot_name":"新北市三重眷村文化園區-1_A","type":"NewTaipei","company":"中華電信","district":"三重區","address":"新北市三重區正義南路86巷9號","apparatus_name":"新北市政府文化局","latitude":"25.057725999999999","longitude":"121.49933900000001","twd97X":"300362.07","twd97Y":"2772291.09","wgs84aX":"121.499161218848","wgs84aY":"25.0579675455962"},{"id":"64","spot_name":"新北市三重眷村文化園區-1_B","type":"NewTaipei","company":"中華電信","district":"三重區","address":"新北市三重區正義南路86巷9號","apparatus_name":"新北市政府文化局","latitude":"25.057725999999999","longitude":"121.49933900000001","twd97X":"300362.07","twd97Y":"2772291.09","wgs84aX":"121.499161218848","wgs84aY":"25.0579675455962"},{"id":"65","spot_name":"新北市三重眷村文化園區-2_A","type":"NewTaipei","company":"中華電信","district":"三重區","address":"新北市三重區正義南路86巷9號","apparatus_name":"新北市政府文化局","latitude":"25.057725999999999","longitude":"121.49933900000001","twd97X":"300362.07","twd97Y":"2772291.09","wgs84aX":"121.499161218848","wgs84aY":"25.0579675455962"},{"id":"66","spot_name":"新北市三重眷村文化園區-2_B","type":"NewTaipei","company":"中華電信","district":"三重區","address":"新北市三重區正義南路86巷9號","apparatus_name":"新北市政府文化局","latitude":"25.057725999999999","longitude":"121.49933900000001","twd97X":"300362.07","twd97Y":"2772291.09","wgs84aX":"121.499161218848","wgs84aY":"25.0579675455962"},{"id":"67","spot_name":"新北市三重眷村文化園區-3_A","type":"NewTaipei","company":"中華電信","district":"三重區","address":"新北市三重區正義南路86巷9號","apparatus_name":"新北市政府文化局","latitude":"25.057725999999999","longitude":"121.49933900000001","twd97X":"300362.07","twd97Y":"2772291.09","wgs84aX":"121.499161218848","wgs84aY":"25.0579675455962"},{"id":"68","spot_name":"新北市三重眷村文化園區-3_B","type":"NewTaipei","company":"中華電信","district":"三重區","address":"新北市三重區正義南路86巷9號","apparatus_name":"新北市政府文化局","latitude":"25.057725999999999","longitude":"121.49933900000001","twd97X":"300362.07","twd97Y":"2772291.09","wgs84aX":"121.499161218848","wgs84aY":"25.0579675455962"},{"id":"69","spot_name":"新北市三重眷村文化園區-4_A","type":"NewTaipei","company":"中華電信","district":"三重區","address":"新北市三重區正義南路86巷9號","apparatus_name":"新北市政府文化局","latitude":"25.057725999999999","longitude":"121.49933900000001","twd97X":"300362.07","twd97Y":"2772291.09","wgs84aX":"121.499161218848","wgs84aY":"25.0579675455962"},{"id":"70","spot_name":"新北市三重眷村文化園區-4_B","type":"NewTaipei","company":"中華電信","district":"三重區","address":"新北市三重區正義南路86巷9號","apparatus_name":"新北市政府文化局","latitude":"25.057725999999999","longitude":"121.49933900000001","twd97X":"300362.07","twd97Y":"2772291.09","wgs84aX":"121.499161218848","wgs84aY":"25.0579675455962"},{"id":"71","spot_name":"新北市三重眷村文化園區-5","type":"NewTaipei","company":"中華電信","district":"三重區","address":"新北市三重區正義南路86巷9號","apparatus_name":"新北市政府文化局","latitude":"25.057725999999999","longitude":"121.49933900000001","twd97X":"300362.07","twd97Y":"2772291.09","wgs84aX":"121.499161218848","wgs84aY":"25.0579675455962"},{"id":"72","spot_name":"新北市三重眷村文化園區-6","type":"NewTaipei","company":"中華電信","district":"三重區","address":"新北市三重區正義南路86巷9號","apparatus_name":"新北市政府文化局","latitude":"25.057725999999999","longitude":"121.49933900000001","twd97X":"300362.07","twd97Y":"2772291.09","wgs84aX":"121.499161218848","wgs84aY":"25.0579675455962"},{"id":"73","spot_name":"新北市三重眷村文化園區-7","type":"NewTaipei","company":"中華電信","district":"三重區","address":"新北市三重區正義南路86巷9號","apparatus_name":"新北市政府文化局","latitude":"25.057725999999999","longitude":"121.49933900000001","twd97X":"300362.07","twd97Y":"2772291.09","wgs84aX":"121.499161218848","wgs84aY":"25.0579675455962"},{"id":"74","spot_name":"新北市三重眷村文化園區-8","type":"NewTaipei","company":"中華電信","district":"三重區","address":"新北市三重區正義南路86巷9號","apparatus_name":"新北市政府文化局","latitude":"25.057725999999999","longitude":"121.49933900000001","twd97X":"300362.07","twd97Y":"2772291.09","wgs84aX":"121.499161218848","wgs84aY":"25.0579675455962"},{"id":"75","spot_name":"新北市三峽戶政事務所","type":"NewTaipei","company":"中華電信","district":"三峽區","address":"新北市三峽區光明路71號5樓","apparatus_name":"新北市政府民政局","latitude":"24.928547900000002","longitude":"121.375924","twd97X":"287988.67","twd97Y":"2757888.16","wgs84aX":"121.376129276097","wgs84aY":"24.9282965689493"},{"id":"76","spot_name":"新北市三峽區公所1F_A","type":"NewTaipei","company":"中華電信","district":"三峽區","address":"新北市三峽區中山路17號1樓","apparatus_name":"新北市三峽區公所","latitude":"24.934266000000001","longitude":"121.369045","twd97X":"287253.12","twd97Y":"2758544.19","wgs84aX":"121.368864304332","wgs84aY":"24.9342376262711"},{"id":"77","spot_name":"新北市三峽區公所1F_B","type":"NewTaipei","company":"中華電信","district":"三峽區","address":"新北市三峽區中山路17號1樓","apparatus_name":"新北市三峽區公所","latitude":"24.934266000000001","longitude":"121.369045","twd97X":"287253.12","twd97Y":"2758544.19","wgs84aX":"121.368864304332","wgs84aY":"24.9342376262711"},{"id":"78","spot_name":"新北市三峽區公所2F_A","type":"NewTaipei","company":"中華電信","district":"三峽區","address":"新北市三峽區中山路17號2樓","apparatus_name":"新北市三峽區公所","latitude":"24.934266000000001","longitude":"121.369045","twd97X":"287253.12","twd97Y":"2758544.19","wgs84aX":"121.368864304332","wgs84aY":"24.9342376262711"},{"id":"79","spot_name":"新北市三峽區公所2F_B","type":"NewTaipei","company":"中華電信","district":"三峽區","address":"新北市三峽區中山路17號2樓","apparatus_name":"新北市三峽區公所","latitude":"24.934266000000001","longitude":"121.369045","twd97X":"287253.12","twd97Y":"2758544.19","wgs84aX":"121.368864304332","wgs84aY":"24.9342376262711"},{"id":"80","spot_name":"新北市三峽區公所3F","type":"NewTaipei","company":"中華電信","district":"三峽區","address":"新北市三峽區中山路17號3樓","apparatus_name":"新北市三峽區公所","latitude":"24.934266000000001","longitude":"121.369045","twd97X":"287253.12","twd97Y":"2758544.19","wgs84aX":"121.368864304332","wgs84aY":"24.9342376262711"},{"id":"81","spot_name":"新北市三峽區衛生所","type":"NewTaipei","company":"中華電信","district":"三峽區","address":"新北市三峽區光明路71號3樓","apparatus_name":"新北市政府衛生局","latitude":"24.9285478","longitude":"121.375924","twd97X":"287988.67","twd97Y":"2757888.16","wgs84aX":"121.376129276097","wgs84aY":"24.9282965689493"},{"id":"82","spot_name":"新北市土城戶政事務所_A","type":"NewTaipei","company":"中華電信","district":"土城區","address":"新北市土城區和平路28號1樓","apparatus_name":"新北市政府民政局","latitude":"24.972574000000002","longitude":"121.443044","twd97X":"294752.74","twd97Y":"2762820.27","wgs84aX":"121.443258917152","wgs84aY":"24.9726404805266"},{"id":"83","spot_name":"新北市土城戶政事務所_B","type":"NewTaipei","company":"中華電信","district":"土城區","address":"新北市土城區和平路28號1樓","apparatus_name":"新北市政府民政局","latitude":"24.972574000000002","longitude":"121.443044","twd97X":"294752.74","twd97Y":"2762820.27","wgs84aX":"121.443258917152","wgs84aY":"24.9726404805266"},{"id":"84","spot_name":"新北市土城戶政事務所_C","type":"NewTaipei","company":"中華電信","district":"土城區","address":"新北市土城區和平路28號1樓","apparatus_name":"新北市政府民政局","latitude":"24.972574000000002","longitude":"121.443044","twd97X":"294752.74","twd97Y":"2762820.27","wgs84aX":"121.443258917152","wgs84aY":"24.9726404805266"},{"id":"85","spot_name":"新北市土城區公所1F_A","type":"NewTaipei","company":"中華電信","district":"土城區","address":"新北市土城區金城路1段101號1樓","apparatus_name":"新北市土城區公所","latitude":"24.9714241","longitude":"121.44268700000001","twd97X":"294713.82","twd97Y":"2762808.25","wgs84aX":"121.44287304768","wgs84aY":"24.9725331780011"},{"id":"86","spot_name":"新北市土城區公所1F_B","type":"NewTaipei","company":"中華電信","district":"土城區","address":"新北市土城區金城路1段101號1樓","apparatus_name":"新北市土城區公所","latitude":"24.9714241","longitude":"121.44268700000001","twd97X":"294713.82","twd97Y":"2762808.25","wgs84aX":"121.44287304768","wgs84aY":"24.9725331780011"},{"id":"87","spot_name":"新北市土城區公所2F_A","type":"NewTaipei","company":"中華電信","district":"土城區","address":"新北市土城區金城路1段101號2樓","apparatus_name":"新北市土城區公所","latitude":"24.9714241","longitude":"121.44268700000001","twd97X":"294713.82","twd97Y":"2762808.25","wgs84aX":"121.44287304768","wgs84aY":"24.9725331780011"},{"id":"88","spot_name":"新北市土城區公所2F_B","type":"NewTaipei","company":"中華電信","district":"土城區","address":"新北市土城區金城路1段101號2樓","apparatus_name":"新北市土城區公所","latitude":"24.9714241","longitude":"121.44268700000001","twd97X":"294713.82","twd97Y":"2762808.25","wgs84aX":"121.44287304768","wgs84aY":"24.9725331780011"},{"id":"89","spot_name":"新北市土城區公所3F_A","type":"NewTaipei","company":"中華電信","district":"土城區","address":"新北市土城區金城路1段101號3樓","apparatus_name":"新北市土城區公所","latitude":"24.9714241","longitude":"121.44268700000001","twd97X":"294713.82","twd97Y":"2762808.25","wgs84aX":"121.44287304768","wgs84aY":"24.9725331780011"},{"id":"90","spot_name":"新北市土城區公所3F_B","type":"NewTaipei","company":"中華電信","district":"土城區","address":"新北市土城區金城路1段101號3樓","apparatus_name":"新北市土城區公所","latitude":"24.9714241","longitude":"121.44268700000001","twd97X":"294713.82","twd97Y":"2762808.25","wgs84aX":"121.44287304768","wgs84aY":"24.9725331780011"},{"id":"91","spot_name":"新北市土城區公所3F_C","type":"NewTaipei","company":"中華電信","district":"土城區","address":"新北市土城區金城路1段101號3樓","apparatus_name":"新北市土城區公所","latitude":"24.9714241","longitude":"121.44268700000001","twd97X":"294713.82","twd97Y":"2762808.25","wgs84aX":"121.44287304768","wgs84aY":"24.9725331780011"},{"id":"92","spot_name":"新北市土城區公所4F_A","type":"NewTaipei","company":"中華電信","district":"土城區","address":"新北市土城區金城路1段101號4樓","apparatus_name":"新北市土城區公所","latitude":"24.9714241","longitude":"121.44268700000001","twd97X":"294713.82","twd97Y":"2762808.25","wgs84aX":"121.44287304768","wgs84aY":"24.9725331780011"},{"id":"93","spot_name":"新北市土城區公所4F_B","type":"NewTaipei","company":"中華電信","district":"土城區","address":"新北市土城區金城路1段101號4樓","apparatus_name":"新北市土城區公所","latitude":"24.9714241","longitude":"121.44268700000001","twd97X":"294713.82","twd97Y":"2762808.25","wgs84aX":"121.44287304768","wgs84aY":"24.9725331780011"},{"id":"94","spot_name":"新北市土城區公所5F_A","type":"NewTaipei","company":"中華電信","district":"土城區","address":"新北市土城區金城路1段101號5樓","apparatus_name":"新北市土城區公所","latitude":"24.9714241","longitude":"121.44268700000001","twd97X":"294713.82","twd97Y":"2762808.25","wgs84aX":"121.44287304768","wgs84aY":"24.9725331780011"},{"id":"95","spot_name":"新北市土城區公所5F_B","type":"NewTaipei","company":"中華電信","district":"土城區","address":"新北市土城區金城路1段101號5樓","apparatus_name":"新北市土城區公所","latitude":"24.9714241","longitude":"121.44268700000001","twd97X":"294713.82","twd97Y":"2762808.25","wgs84aX":"121.44287304768","wgs84aY":"24.9725331780011"},{"id":"96","spot_name":"新北市土城區公所7F_A","type":"NewTaipei","company":"中華電信","district":"土城區","address":"新北市土城區金城路1段101號7樓","apparatus_name":"新北市土城區公所","latitude":"24.9714241","longitude":"121.44268700000001","twd97X":"294713.82","twd97Y":"2762808.25","wgs84aX":"121.44287304768","wgs84aY":"24.9725331780011"},{"id":"97","spot_name":"新北市土城區公所7F_B","type":"NewTaipei","company":"中華電信","district":"土城區","address":"新北市土城區金城路1段101號7樓","apparatus_name":"新北市土城區公所","latitude":"24.9714241","longitude":"121.44268700000001","twd97X":"294713.82","twd97Y":"2762808.25","wgs84aX":"121.44287304768","wgs84aY":"24.9725331780011"},{"id":"98","spot_name":"新北市土城區員林市民活動中心","type":"NewTaipei","company":"中華電信","district":"土城區","address":"新北市土城區員林街15號2樓","apparatus_name":"新北市土城區公所","latitude":"24.977823999999998","longitude":"121.4435","twd97X":"294722.97","twd97Y":"2763445","wgs84aX":"121.442984263918","wgs84aY":"24.9782815570319"},{"id":"99","spot_name":"新北市土城區衛生所","type":"NewTaipei","company":"中華電信","district":"土城區","address":"新北市土城區和平路26號1樓","apparatus_name":"新北市政府衛生局","latitude":"24.9729399","longitude":"121.443065","twd97X":"294745.61","twd97Y":"2762844.29","wgs84aX":"121.443189021583","wgs84aY":"24.9728576191764"},{"id":"100","spot_name":"新北市土城國民運動中心1F-1","type":"NewTaipei","company":"中華電信","district":"土城區","address":"新北市土城區金城路2段247之1號1F","apparatus_name":"新北市政府體育處","latitude":"24.985416000000001","longitude":"121.457173","twd97X":"296120.12","twd97Y":"2764022.81","wgs84aX":"121.456841993704","wgs84aY":"24.9834562834341"},{"id":"101","spot_name":"新北市土城國民運動中心1F-2","type":"NewTaipei","company":"中華電信","district":"土城區","address":"新北市土城區金城路2段247之1號1F","apparatus_name":"新北市政府體育處","latitude":"24.985416000000001","longitude":"121.457173","twd97X":"296120.12","twd97Y":"2764022.81","wgs84aX":"121.456841993704","wgs84aY":"24.9834562834341"},{"id":"102","spot_name":"新北市土城國民運動中心2F","type":"NewTaipei","company":"中華電信","district":"土城區","address":"新北市土城區金城路2段247之1號2F","apparatus_name":"新北市政府體育處","latitude":"24.985416000000001","longitude":"121.457173","twd97X":"296120.12","twd97Y":"2764022.81","wgs84aX":"121.456841993704","wgs84aY":"24.9834562834341"},{"id":"103","spot_name":"新北市土城國民運動中心3F-1","type":"NewTaipei","company":"中華電信","district":"土城區","address":"新北市土城區金城路2段247之1號3F","apparatus_name":"新北市政府體育處","latitude":"24.985416000000001","longitude":"121.457173","twd97X":"296120.12","twd97Y":"2764022.81","wgs84aX":"121.456841993704","wgs84aY":"24.9834562834341"},{"id":"104","spot_name":"新北市土城國民運動中心3F-2","type":"NewTaipei","company":"中華電信","district":"土城區","address":"新北市土城區金城路2段247之1號3F","apparatus_name":"新北市政府體育處","latitude":"24.985416000000001","longitude":"121.457173","twd97X":"296120.12","twd97Y":"2764022.81","wgs84aX":"121.456841993704","wgs84aY":"24.9834562834341"},{"id":"105","spot_name":"新北市土城國民運動中心4F","type":"NewTaipei","company":"中華電信","district":"土城區","address":"新北市土城區金城路2段247之1號4F","apparatus_name":"新北市政府體育處","latitude":"24.985416000000001","longitude":"121.457173","twd97X":"296120.12","twd97Y":"2764022.81","wgs84aX":"121.456841993704","wgs84aY":"24.9834562834341"},{"id":"106","spot_name":"新北市中和戶政事務所4F_A","type":"NewTaipei","company":"中華電信","district":"中和區","address":"新北市中和區南山路236號4樓","apparatus_name":"新北市政府民政局","latitude":"24.989719999999998","longitude":"121.50644699999999","twd97X":"301150.89","twd97Y":"2764733.13","wgs84aX":"121.506699030608","wgs84aY":"24.9897077288838"},{"id":"107","spot_name":"新北市中和戶政事務所4F_B","type":"NewTaipei","company":"中華電信","district":"中和區","address":"新北市中和區南山路236號4樓","apparatus_name":"新北市政府民政局","latitude":"24.989719999999998","longitude":"121.50644699999999","twd97X":"301150.89","twd97Y":"2764733.13","wgs84aX":"121.506699030608","wgs84aY":"24.9897077288838"},{"id":"108","spot_name":"新北市中和戶政事務所5F","type":"NewTaipei","company":"中華電信","district":"中和區","address":"新北市中和區南山路236號5樓","apparatus_name":"新北市政府民政局","latitude":"24.989719999999998","longitude":"121.50644699999999","twd97X":"301150.89","twd97Y":"2764733.13","wgs84aX":"121.506699030608","wgs84aY":"24.9897077288838"},{"id":"109","spot_name":"新北市中和戶政事務所民享辦事處","type":"NewTaipei","company":"中華電信","district":"中和區","address":"新北市中和區民享街37號2樓之1","apparatus_name":"新北市政府民政局","latitude":"25.003546199999999","longitude":"121.4741203","twd97X":"297857.6","twd97Y":"2766256.96","wgs84aX":"121.474129530691","wgs84aY":"25.003572523065"},{"id":"110","spot_name":"新北市中和戶政事務所員山辦事處","type":"NewTaipei","company":"中華電信","district":"中和區","address":"新北市中和區中正路1163號3樓","apparatus_name":"新北市政府民政局","latitude":"25.009032999999999","longitude":"121.48178","twd97X":"298610.91","twd97Y":"2766873.26","wgs84aX":"121.481614099304","wgs84aY":"25.009112528021"},{"id":"111","spot_name":"新北市中和地政事務所1F_A","type":"NewTaipei","company":"中華電信","district":"中和區","address":"新北市中和區復興路280號1樓","apparatus_name":"新北市政府地政局","latitude":"24.990297999999999","longitude":"121.502206","twd97X":"300716.9","twd97Y":"2764819.77","wgs84aX":"121.502403261625","wgs84aY":"24.9905044918888"},{"id":"112","spot_name":"新北市中和地政事務所1F_B","type":"NewTaipei","company":"中華電信","district":"中和區","address":"新北市中和區復興路280號1樓","apparatus_name":"新北市政府地政局","latitude":"24.990297999999999","longitude":"121.502206","twd97X":"300716.9","twd97Y":"2764819.77","wgs84aX":"121.502403261625","wgs84aY":"24.9905044918888"},{"id":"113","spot_name":"新北市中和地政事務所2F_A","type":"NewTaipei","company":"中華電信","district":"中和區","address":"新北市中和區復興路280號2樓","apparatus_name":"新北市政府地政局","latitude":"24.990297999999999","longitude":"121.502206","twd97X":"300716.9","twd97Y":"2764819.77","wgs84aX":"121.502403261625","wgs84aY":"24.9905044918888"},{"id":"114","spot_name":"新北市中和地政事務所2F_B","type":"NewTaipei","company":"中華電信","district":"中和區","address":"新北市中和區復興路280號2樓","apparatus_name":"新北市政府地政局","latitude":"24.990297999999999","longitude":"121.502206","twd97X":"300716.9","twd97Y":"2764819.77","wgs84aX":"121.502403261625","wgs84aY":"24.9905044918888"},{"id":"115","spot_name":"新北市中和地政事務所3F_A","type":"NewTaipei","company":"中華電信","district":"中和區","address":"新北市中和區復興路280號3樓","apparatus_name":"新北市政府地政局","latitude":"24.990297999999999","longitude":"121.502206","twd97X":"300716.9","twd97Y":"2764819.77","wgs84aX":"121.502403261625","wgs84aY":"24.9905044918888"},{"id":"116","spot_name":"新北市中和地政事務所3F_B","type":"NewTaipei","company":"中華電信","district":"中和區","address":"新北市中和區復興路280號3樓","apparatus_name":"新北市政府地政局","latitude":"24.990297999999999","longitude":"121.502206","twd97X":"300716.9","twd97Y":"2764819.77","wgs84aX":"121.502403261625","wgs84aY":"24.9905044918888"},{"id":"117","spot_name":"新北市中和地政事務所4F_A","type":"NewTaipei","company":"中華電信","district":"中和區","address":"新北市中和區復興路280號4樓","apparatus_name":"新北市政府地政局","latitude":"24.990297999999999","longitude":"121.502206","twd97X":"300716.9","twd97Y":"2764819.77","wgs84aX":"121.502403261625","wgs84aY":"24.9905044918888"},{"id":"118","spot_name":"新北市中和地政事務所4F_B","type":"NewTaipei","company":"中華電信","district":"中和區","address":"新北市中和區復興路280號4樓","apparatus_name":"新北市政府地政局","latitude":"24.990297999999999","longitude":"121.502206","twd97X":"300716.9","twd97Y":"2764819.77","wgs84aX":"121.502403261625","wgs84aY":"24.9905044918888"},{"id":"119","spot_name":"新北市中和區公所1F_A","type":"NewTaipei","company":"中華電信","district":"中和區","address":"新北市中和區景平路634-2號1樓","apparatus_name":"新北市中和區公所","latitude":"24.998635","longitude":"121.500995","twd97X":"300493.81","twd97Y":"2765660.62","wgs84aX":"121.500224161355","wgs84aY":"24.998103222104"},{"id":"120","spot_name":"新北市中和區公所1F_B","type":"NewTaipei","company":"中華電信","district":"中和區","address":"新北市中和區景平路634-2號1樓","apparatus_name":"新北市中和區公所","latitude":"24.998635","longitude":"121.500995","twd97X":"300493.81","twd97Y":"2765660.62","wgs84aX":"121.500224161355","wgs84aY":"24.998103222104"},{"id":"121","spot_name":"新北市中和區公所3F_A","type":"NewTaipei","company":"中華電信","district":"中和區","address":"新北市中和區景平路634-2號","apparatus_name":"新北市中和區公所","latitude":"24.998578999999999","longitude":"121.50065499999999","twd97X":"300493.81","twd97Y":"2765660.62","wgs84aX":"121.500224161355","wgs84aY":"24.998103222104"},{"id":"122","spot_name":"新北市中和區公所3F_B","type":"NewTaipei","company":"中華電信","district":"中和區","address":"新北市中和區景平路634-2號","apparatus_name":"新北市中和區公所","latitude":"24.998578999999999","longitude":"121.50065499999999","twd97X":"300493.81","twd97Y":"2765660.62","wgs84aX":"121.500224161355","wgs84aY":"24.998103222104"},{"id":"123","spot_name":"新北市中和區公所6F","type":"NewTaipei","company":"中華電信","district":"中和區","address":"新北市中和區景平路634-2號","apparatus_name":"新北市中和區公所","latitude":"24.998578999999999","longitude":"121.50065499999999","twd97X":"300493.81","twd97Y":"2765660.62","wgs84aX":"121.500224161355","wgs84aY":"24.998103222104"},{"id":"124","spot_name":"新北市中和區公所中和調解委員會_A","type":"NewTaipei","company":"中華電信","district":"中和區","address":"新北市中和區景平路634號之2 B1","apparatus_name":"新北市中和區公所","latitude":"24.999782","longitude":"121.498531","twd97X":"300493.81","twd97Y":"2765660.62","wgs84aX":"121.500224161355","wgs84aY":"24.998103222104"},{"id":"125","spot_name":"新北市中和區公所中和調解委員會_B","type":"NewTaipei","company":"中華電信","district":"中和區","address":"新北市中和區景平路634號之2 B1","apparatus_name":"新北市中和區公所","latitude":"24.999782","longitude":"121.498531","twd97X":"300493.81","twd97Y":"2765660.62","wgs84aX":"121.500224161355","wgs84aY":"24.998103222104"},{"id":"126","spot_name":"新北市中和區衛生所1F_A","type":"NewTaipei","company":"中華電信","district":"中和區","address":"新北市中和區南山路4巷3號1樓","apparatus_name":"新北市政府衛生局","latitude":"24.998612999999999","longitude":"121.501677","twd97X":"300636.25","twd97Y":"2765726.38","wgs84aX":"121.501637627396","wgs84aY":"24.9986921311066"},{"id":"127","spot_name":"新北市中和區衛生所1F_B","type":"NewTaipei","company":"中華電信","district":"中和區","address":"新北市中和區南山路4巷3號1樓","apparatus_name":"新北市政府衛生局","latitude":"24.998612999999999","longitude":"121.501677","twd97X":"300636.25","twd97Y":"2765726.38","wgs84aX":"121.501637627396","wgs84aY":"24.9986921311066"},{"id":"128","spot_name":"新北市中和國民運動中心1F","type":"NewTaipei","company":"中華電信","district":"中和區","address":"新北市中和區錦和路350之1號1F","apparatus_name":"新北市政府體育處","latitude":"24.993312","longitude":"121.48925199999999","twd97X":"299526.15","twd97Y":"2765031.29","wgs84aX":"121.49061562041","wgs84aY":"24.9924534809373"},{"id":"129","spot_name":"新北市中和國民運動中心2F","type":"NewTaipei","company":"中華電信","district":"中和區","address":"新北市中和區錦和路350之1號2F","apparatus_name":"新北市政府體育處","latitude":"24.993312","longitude":"121.48925199999999","twd97X":"299526.15","twd97Y":"2765031.29","wgs84aX":"121.49061562041","wgs84aY":"24.9924534809373"},{"id":"130","spot_name":"新北市中和國民運動中心3F","type":"NewTaipei","company":"中華電信","district":"中和區","address":"新北市中和區錦和路350之1號3F","apparatus_name":"新北市政府體育處","latitude":"24.993312","longitude":"121.48925199999999","twd97X":"299526.15","twd97Y":"2765031.29","wgs84aX":"121.49061562041","wgs84aY":"24.9924534809373"},{"id":"131","spot_name":"新北市中和國民運動中心4F","type":"NewTaipei","company":"中華電信","district":"中和區","address":"新北市中和區錦和路350之1號4F","apparatus_name":"新北市政府體育處","latitude":"24.993312","longitude":"121.48925199999999","twd97X":"299526.15","twd97Y":"2765031.29","wgs84aX":"121.49061562041","wgs84aY":"24.9924534809373"},{"id":"132","spot_name":"新北市中和國民運動中心B1","type":"NewTaipei","company":"中華電信","district":"中和區","address":"新北市中和區錦和路350之1號B1","apparatus_name":"新北市政府體育處","latitude":"24.993312","longitude":"121.48925199999999","twd97X":"299526.15","twd97Y":"2765031.29","wgs84aX":"121.49061562041","wgs84aY":"24.9924534809373"},{"id":"133","spot_name":"新北市中和國民運動中心泳池看台","type":"NewTaipei","company":"中華電信","district":"中和區","address":"新北市中和區錦和路350之1號","apparatus_name":"新北市政府體育處","latitude":"24.993312","longitude":"121.48925199999999","twd97X":"299526.15","twd97Y":"2765031.29","wgs84aX":"121.49061562041","wgs84aY":"24.9924534809373"},{"id":"134","spot_name":"新北市中港大排願景館","type":"NewTaipei","company":"中華電信","district":"新莊區","address":"新北市新莊區新北大道4段1號2樓","apparatus_name":"新北市政府水利局","latitude":"25.059853","longitude":"121.450345","twd97X":"295441.6","twd97Y":"2772500.49","wgs84aX":"121.450400341223","wgs84aY":"25.0600139127027"},{"id":"135","spot_name":"新北市五股戶政事務所_A","type":"NewTaipei","company":"中華電信","district":"五股區","address":"新北市五股區中興路4段70號1樓","apparatus_name":"新北市政府民政局","latitude":"25.083070599999999","longitude":"121.43769930000001","twd97X":"294085.2","twd97Y":"2775098.03","wgs84aX":"121.437039758757","wgs84aY":"25.0835047232727"},{"id":"136","spot_name":"新北市五股戶政事務所_B","type":"NewTaipei","company":"中華電信","district":"五股區","address":"新北市五股區中興路4段70號1樓","apparatus_name":"新北市政府民政局","latitude":"25.083070599999999","longitude":"121.43769930000001","twd97X":"294085.2","twd97Y":"2775098.03","wgs84aX":"121.437039758757","wgs84aY":"25.0835047232727"},{"id":"137","spot_name":"新北市五股戶政事務所八里區所","type":"NewTaipei","company":"中華電信","district":"八里區","address":"新北市八里區訊塘路39號1樓","apparatus_name":"新北市政府民政局","latitude":"25.146177999999999","longitude":"121.397418","twd97X":"290077.23","twd97Y":"2782010.65","wgs84aX":"121.397509200004","wgs84aY":"25.1460236864957"},{"id":"138","spot_name":"新北市五股區公所1F_A","type":"NewTaipei","company":"中華電信","district":"五股區","address":"新北市五股區中興路4段50號1樓","apparatus_name":"新北市五股區公所","latitude":"25.083171","longitude":"121.4379028","twd97X":"294188.46","twd97Y":"2775049.2","wgs84aX":"121.438061769975","wgs84aY":"25.0830609032847"},{"id":"139","spot_name":"新北市五股區公所1F_B","type":"NewTaipei","company":"中華電信","district":"五股區","address":"新北市五股區中興路4段50號1樓","apparatus_name":"新北市五股區公所","latitude":"25.083171","longitude":"121.4379028","twd97X":"294188.46","twd97Y":"2775049.2","wgs84aX":"121.438061769975","wgs84aY":"25.0830609032847"},{"id":"140","spot_name":"新北市五股區公所2F","type":"NewTaipei","company":"中華電信","district":"五股區","address":"新北市五股區中興路4段50號2樓","apparatus_name":"新北市五股區公所","latitude":"25.083171","longitude":"121.4379028","twd97X":"294188.46","twd97Y":"2775049.2","wgs84aX":"121.438061769975","wgs84aY":"25.0830609032847"},{"id":"141","spot_name":"新北市五股區公所3F","type":"NewTaipei","company":"中華電信","district":"五股區","address":"新北市五股區中興路4段50號3樓","apparatus_name":"新北市五股區公所","latitude":"25.083068000000001","longitude":"121.438129","twd97X":"294188.46","twd97Y":"2775049.2","wgs84aX":"121.438061769975","wgs84aY":"25.0830609032847"},{"id":"142","spot_name":"新北市五股區公所4F","type":"NewTaipei","company":"中華電信","district":"五股區","address":"新北市五股區中興路4段50號4樓","apparatus_name":"新北市五股區公所","latitude":"25.083171","longitude":"121.4379028","twd97X":"294188.46","twd97Y":"2775049.2","wgs84aX":"121.438061769975","wgs84aY":"25.0830609032847"},{"id":"143","spot_name":"新北市五股區公所6F","type":"NewTaipei","company":"中華電信","district":"五股區","address":"新北市五股區中興路4段50號6樓","apparatus_name":"新北市五股區公所","latitude":"25.083068000000001","longitude":"121.438129","twd97X":"294188.46","twd97Y":"2775049.2","wgs84aX":"121.438061769975","wgs84aY":"25.0830609032847"},{"id":"144","spot_name":"新北市五股區公所7F","type":"NewTaipei","company":"中華電信","district":"五股區","address":"新北市五股區中興路4段50號7樓","apparatus_name":"新北市五股區公所","latitude":"25.083068000000001","longitude":"121.438129","twd97X":"294188.46","twd97Y":"2775049.2","wgs84aX":"121.438061769975","wgs84aY":"25.0830609032847"},{"id":"145","spot_name":"新北市五股區公所8F","type":"NewTaipei","company":"中華電信","district":"五股區","address":"新北市五股區中興路4段50號8樓","apparatus_name":"新北市五股區公所","latitude":"25.083068000000001","longitude":"121.438129","twd97X":"294188.46","twd97Y":"2775049.2","wgs84aX":"121.438061769975","wgs84aY":"25.0830609032847"},{"id":"146","spot_name":"新北市五股區公所9F","type":"NewTaipei","company":"中華電信","district":"五股區","address":"新北市五股區中興路4段50號9樓","apparatus_name":"新北市五股區公所","latitude":"25.083068000000001","longitude":"121.438129","twd97X":"294188.46","twd97Y":"2775049.2","wgs84aX":"121.438061769975","wgs84aY":"25.0830609032847"},{"id":"147","spot_name":"新北市五股區衛生所_A","type":"NewTaipei","company":"中華電信","district":"五股區","address":"新北市五股區新城三路11號3樓","apparatus_name":"新北市政府衛生局","latitude":"25.083573000000001","longitude":"121.43676000000001","twd97X":"295150.4","twd97Y":"2776290.27","wgs84aX":"121.447638549897","wgs84aY":"25.0942367717753"},{"id":"148","spot_name":"新北市五股區衛生所_B","type":"NewTaipei","company":"中華電信","district":"五股區","address":"新北市五股區新城三路11號3樓","apparatus_name":"新北市政府衛生局","latitude":"25.083573000000001","longitude":"121.43676000000001","twd97X":"295150.4","twd97Y":"2776290.27","wgs84aX":"121.447638549897","wgs84aY":"25.0942367717753"},{"id":"149","spot_name":"新北市平溪區公所","type":"NewTaipei","company":"中華電信","district":"平溪區","address":"新北市平溪區平溪街45號1樓","apparatus_name":"新北市平溪區公所","latitude":"25.026689000000001","longitude":"121.73819","twd97X":"324498.09","twd97Y":"2768929.48","wgs84aX":"121.738189349412","wgs84aY":"25.0266236414622"},{"id":"150","spot_name":"新北市平溪區衛生所","type":"NewTaipei","company":"中華電信","district":"平溪區","address":"新北市平溪區公園街17號1樓","apparatus_name":"新北市政府衛生局","latitude":"25.025183999999999","longitude":"121.739164","twd97X":"324397.88","twd97Y":"2768713.69","wgs84aX":"121.737184861596","wgs84aY":"25.0246805371994"},{"id":"151","spot_name":"新北市永和戶政事務所_A","type":"NewTaipei","company":"中華電信","district":"永和區","address":"新北市永和區竹林路200-1號1樓","apparatus_name":"新北市政府民政局","latitude":"25.008960999999999","longitude":"121.520279","twd97X":"302534.17","twd97Y":"2766894.98","wgs84aX":"121.520483559089","wgs84aY":"25.00917765216"},{"id":"152","spot_name":"新北市永和戶政事務所_B","type":"NewTaipei","company":"中華電信","district":"永和區","address":"新北市永和區竹林路200-1號1樓","apparatus_name":"新北市政府民政局","latitude":"25.008960999999999","longitude":"121.520279","twd97X":"302534.17","twd97Y":"2766894.98","wgs84aX":"121.520483559089","wgs84aY":"25.00917765216"},{"id":"153","spot_name":"新北市永和區仁愛公園活動中心","type":"NewTaipei","company":"中華電信","district":"永和區","address":"新北市永和區仁愛路244-1號","apparatus_name":"新北市永和區公所","latitude":"25.011223000000001","longitude":"121.50707199999999","twd97X":"301245.44","twd97Y":"2767131.79","wgs84aX":"121.507724588798","wgs84aY":"25.0113597077753"},{"id":"154","spot_name":"新北市永和區公所1F","type":"NewTaipei","company":"中華電信","district":"永和區","address":"新北市永和區竹林路200號1樓","apparatus_name":"新北市永和區公所","latitude":"25.008977999999999","longitude":"121.52027699999999","twd97X":"302534.17","twd97Y":"2766894.98","wgs84aX":"121.520483559089","wgs84aY":"25.00917765216"},{"id":"155","spot_name":"新北市永和區公所2F-1","type":"NewTaipei","company":"中華電信","district":"永和區","address":"新北市永和區竹林路200號2樓","apparatus_name":"新北市永和區公所","latitude":"25.008977999999999","longitude":"121.52027699999999","twd97X":"302534.17","twd97Y":"2766894.98","wgs84aX":"121.520483559089","wgs84aY":"25.00917765216"},{"id":"156","spot_name":"新北市永和區公所2F-2","type":"NewTaipei","company":"中華電信","district":"永和區","address":"新北市永和區竹林路200號2樓","apparatus_name":"新北市永和區公所","latitude":"25.008977999999999","longitude":"121.52027699999999","twd97X":"302534.17","twd97Y":"2766894.98","wgs84aX":"121.520483559089","wgs84aY":"25.00917765216"},{"id":"157","spot_name":"新北市永和區公所3F-1_A","type":"NewTaipei","company":"中華電信","district":"永和區","address":"新北市永和區竹林路200號3樓","apparatus_name":"新北市永和區公所","latitude":"25.008977999999999","longitude":"121.52027699999999","twd97X":"302534.17","twd97Y":"2766894.98","wgs84aX":"121.520483559089","wgs84aY":"25.00917765216"},{"id":"158","spot_name":"新北市永和區公所3F-1_B","type":"NewTaipei","company":"中華電信","district":"永和區","address":"新北市永和區竹林路200號3樓","apparatus_name":"新北市永和區公所","latitude":"25.008977999999999","longitude":"121.52027699999999","twd97X":"302534.17","twd97Y":"2766894.98","wgs84aX":"121.520483559089","wgs84aY":"25.00917765216"},{"id":"159","spot_name":"新北市永和區公所3F-2","type":"NewTaipei","company":"中華電信","district":"永和區","address":"新北市永和區竹林路200號3樓","apparatus_name":"新北市永和區公所","latitude":"25.008977999999999","longitude":"121.52027699999999","twd97X":"302534.17","twd97Y":"2766894.98","wgs84aX":"121.520483559089","wgs84aY":"25.00917765216"},{"id":"160","spot_name":"新北市永和區公所4F","type":"NewTaipei","company":"中華電信","district":"永和區","address":"新北市永和區竹林路200號4樓","apparatus_name":"新北市永和區公所","latitude":"25.008977999999999","longitude":"121.52027699999999","twd97X":"302534.17","twd97Y":"2766894.98","wgs84aX":"121.520483559089","wgs84aY":"25.00917765216"},{"id":"161","spot_name":"新北市永和區衛生所","type":"NewTaipei","company":"中華電信","district":"永和區","address":"新北市永和區秀朗路1段137號1樓","apparatus_name":"新北市政府衛生局","latitude":"25.005019999999998","longitude":"121.516206","twd97X":"302106.8","twd97Y":"2766427.37","wgs84aX":"121.516231911235","wgs84aY":"25.0049708320014"},{"id":"162","spot_name":"新北市永和國民運動中心1樓","type":"NewTaipei","company":"中華電信","district":"永和區","address":"新北市永和區永利路250號1樓","apparatus_name":"新北市政府體育處","latitude":"25.003129999999999","longitude":"121.524129","twd97X":"302919.52","twd97Y":"2766237.77","wgs84aX":"121.524276079264","wgs84aY":"25.0032309939318"},{"id":"163","spot_name":"新北市永和國民運動中心2樓","type":"NewTaipei","company":"中華電信","district":"永和區","address":"新北市永和區永利路250號2樓","apparatus_name":"新北市政府體育處","latitude":"25.003129999999999","longitude":"121.524129","twd97X":"302919.52","twd97Y":"2766237.77","wgs84aX":"121.524276079264","wgs84aY":"25.0032309939318"},{"id":"164","spot_name":"新北市永和國民運動中心3樓_A","type":"NewTaipei","company":"中華電信","district":"永和區","address":"新北市永和區永利路250號3樓","apparatus_name":"新北市政府體育處","latitude":"25.003129999999999","longitude":"121.524129","twd97X":"302919.52","twd97Y":"2766237.77","wgs84aX":"121.524276079264","wgs84aY":"25.0032309939318"},{"id":"165","spot_name":"新北市永和國民運動中心3樓_B","type":"NewTaipei","company":"中華電信","district":"永和區","address":"新北市永和區永利路250號3樓","apparatus_name":"新北市政府體育處","latitude":"25.003129999999999","longitude":"121.524129","twd97X":"302919.52","twd97Y":"2766237.77","wgs84aX":"121.524276079264","wgs84aY":"25.0032309939318"},{"id":"166","spot_name":"新北市永和國民運動中心4樓","type":"NewTaipei","company":"中華電信","district":"永和區","address":"新北市永和區永利路250號4樓","apparatus_name":"新北市政府體育處","latitude":"25.003129999999999","longitude":"121.524129","twd97X":"302919.52","twd97Y":"2766237.77","wgs84aX":"121.524276079264","wgs84aY":"25.0032309939318"},{"id":"167","spot_name":"新北市永和國民運動中心5樓","type":"NewTaipei","company":"中華電信","district":"永和區","address":"新北市永和區永利路250號5樓","apparatus_name":"新北市政府體育處","latitude":"25.003129999999999","longitude":"121.524129","twd97X":"302919.52","twd97Y":"2766237.77","wgs84aX":"121.524276079264","wgs84aY":"25.0032309939318"},{"id":"168","spot_name":"新北市永和國民運動中心6樓","type":"NewTaipei","company":"中華電信","district":"永和區","address":"新北市永和區永利路250號6樓","apparatus_name":"新北市政府體育處","latitude":"25.003129999999999","longitude":"121.524129","twd97X":"302919.52","twd97Y":"2766237.77","wgs84aX":"121.524276079264","wgs84aY":"25.0032309939318"},{"id":"169","spot_name":"新北市石門區山溪里活動中心","type":"NewTaipei","company":"中華電信","district":"石門區","address":"新北市石門區山溪里老崩山6-5號","apparatus_name":"新北市石門區公所","latitude":"25.273513999999999","longitude":"121.558442","twd97X":"305648.07","twd97Y":"2798163.2","wgs84aX":"121.552603303135","wgs84aY":"25.2913490575224"},{"id":"170","spot_name":"新北市石門區公所","type":"NewTaipei","company":"中華電信","district":"石門區","address":"新北市石門區尖鹿里中山路66號1樓","apparatus_name":"新北市石門區公所","latitude":"25.268611100000001","longitude":"121.5713889","twd97X":"307184.64","twd97Y":"2798154.4","wgs84aX":"121.567860998392","wgs84aY":"25.2912117495905"},{"id":"171","spot_name":"新北市石門區衛生所","type":"NewTaipei","company":"中華電信","district":"石門區","address":"新北市石門區石門區中山路28之1號","apparatus_name":"新北市石門區公所","latitude":"25.290368000000001","longitude":"121.56590199999999","twd97X":"307173.26","twd97Y":"2798174.75","wgs84aX":"121.567748839","wgs84aY":"25.291395879"},{"id":"172","spot_name":"新北市石碇區二格公園展售中心","type":"NewTaipei","company":"中華電信","district":"石碇區","address":"新北市石碇區北宜公路23公里處","apparatus_name":"新北市石碇區公所","latitude":"24.956493999999999","longitude":"121.62300999999999","twd97X":"317257","twd97Y":"2759612","wgs84aX":"121.665989263","wgs84aY":"24.9428464025"},{"id":"173","spot_name":"新北市石碇區公所_A","type":"NewTaipei","company":"中華電信","district":"石碇區","address":"新北市石碇區碇坪路1段37號","apparatus_name":"新北市石碇區公所","latitude":"24.991337000000001","longitude":"121.660538","twd97X":"316416.85","twd97Y":"2764997.61","wgs84aX":"121.657928957275","wgs84aY":"24.9915037285797"},{"id":"174","spot_name":"新北市石碇區公所_B","type":"NewTaipei","company":"中華電信","district":"石碇區","address":"新北市石碇區碇坪路1段37號2樓","apparatus_name":"新北市石碇區公所","latitude":"24.991337000000001","longitude":"121.660538","twd97X":"316416.85","twd97Y":"2764997.61","wgs84aX":"121.657928957275","wgs84aY":"24.9915037285797"},{"id":"175","spot_name":"新北市石碇區公所_C","type":"NewTaipei","company":"中華電信","district":"石碇區","address":"新北市石碇區碇坪路1段37號3樓","apparatus_name":"新北市石碇區公所","latitude":"24.991337000000001","longitude":"121.660538","twd97X":"316416.85","twd97Y":"2764997.61","wgs84aX":"121.657928957275","wgs84aY":"24.9915037285797"},{"id":"176","spot_name":"新北市石碇區公所_D","type":"NewTaipei","company":"中華電信","district":"石碇區","address":"新北市石碇區碇坪路1段37號4樓","apparatus_name":"新北市石碇區公所","latitude":"24.991337000000001","longitude":"121.660538","twd97X":"316416.85","twd97Y":"2764997.61","wgs84aX":"121.657928957275","wgs84aY":"24.9915037285797"},{"id":"177","spot_name":"新北市石碇區衛生所","type":"NewTaipei","company":"中華電信","district":"石碇區","address":"新北市石碇區碇坪路碇坪路1段82號","apparatus_name":"新北市政府衛生局","latitude":"24.991343000000001","longitude":"121.660543","twd97X":"316455.05","twd97Y":"2764993.53","wgs84aX":"121.658307091","wgs84aY":"24.9914652059"},{"id":"178","spot_name":"新北市立十三行博物館_A","type":"NewTaipei","company":"中華電信","district":"八里區","address":"新北市八里區博物館路200號1樓","apparatus_name":"新北市政府文化局","latitude":"25.1568419","longitude":"121.405074","twd97X":"290829.53","twd97Y":"2783228.28","wgs84aX":"121.405007129699","wgs84aY":"25.1569962731086"},{"id":"179","spot_name":"新北市立十三行博物館_B","type":"NewTaipei","company":"中華電信","district":"八里區","address":"新北市八里區博物館路200號1樓","apparatus_name":"新北市政府文化局","latitude":"25.1568419","longitude":"121.405074","twd97X":"290829.53","twd97Y":"2783228.28","wgs84aX":"121.405007129699","wgs84aY":"25.1569962731086"},{"id":"180","spot_name":"新北市立三峽火化場-1","type":"NewTaipei","company":"中華電信","district":"三峽區","address":"新北市三峽區介壽路3段260巷1號3F","apparatus_name":"新北市政府民政局","latitude":"24.948926","longitude":"121.407448","twd97X":"291162.38","twd97Y":"2760192.01","wgs84aX":"121.407620302595","wgs84aY":"24.949013689014"},{"id":"181","spot_name":"新北市立三峽火化場-2","type":"NewTaipei","company":"中華電信","district":"板橋區","address":"新北市三峽區介壽路3段260巷1號","apparatus_name":"新北市政府民政局","latitude":"24.948929","longitude":"121.407443","twd97X":"291162.38","twd97Y":"2760192.01","wgs84aX":"121.407620302595","wgs84aY":"24.949013689014"},{"id":"182","spot_name":"新北市立圖書館八里分館-1_A","type":"NewTaipei","company":"中華電信","district":"八里區","address":"新北市八里區舊城里舊城路19號5樓","apparatus_name":"新北市政府文化局","latitude":"25.146544800000001","longitude":"121.40011869999999","twd97X":"290314.57","twd97Y":"2782073.23","wgs84aX":"121.399865125034","wgs84aY":"25.1465823764591"},{"id":"183","spot_name":"新北市立圖書館八里分館-1_B","type":"NewTaipei","company":"中華電信","district":"八里區","address":"新北市八里區舊城里舊城路19號5樓","apparatus_name":"新北市政府文化局","latitude":"25.146544800000001","longitude":"121.40011869999999","twd97X":"290314.57","twd97Y":"2782073.23","wgs84aX":"121.399865125034","wgs84aY":"25.1465823764591"},{"id":"184","spot_name":"新北市立圖書館八里分館-2","type":"NewTaipei","company":"中華電信","district":"八里區","address":"新北市八里區舊城里舊城路19號6樓","apparatus_name":"新北市政府文化局","latitude":"25.146544800000001","longitude":"121.40011869999999","twd97X":"290314.57","twd97Y":"2782073.23","wgs84aX":"121.399865125034","wgs84aY":"25.1465823764591"},{"id":"185","spot_name":"新北市立圖書館三芝分館-1","type":"NewTaipei","company":"中華電信","district":"三芝區","address":"新北市三芝區淡金路1段37號2樓","apparatus_name":"新北市政府文化局","latitude":"25.259359","longitude":"121.501195","twd97X":"300482.71","twd97Y":"2794607.4","wgs84aX":"121.501179345776","wgs84aY":"25.2594316516862"},{"id":"186","spot_name":"新北市立圖書館三芝分館-2","type":"NewTaipei","company":"中華電信","district":"三芝區","address":"新北市三芝區淡金路1段37號1樓","apparatus_name":"新北市政府文化局","latitude":"25.259359","longitude":"121.501195","twd97X":"300482.71","twd97Y":"2794607.4","wgs84aX":"121.501179345776","wgs84aY":"25.2594316516862"},{"id":"187","spot_name":"新北市立圖書館三重五常分館","type":"NewTaipei","company":"中華電信","district":"三重區","address":"新北市三重區五華街7巷30號2樓","apparatus_name":"新北市政府文化局","latitude":"25.08079","longitude":"121.496026","twd97X":"300043.46","twd97Y":"2774818.56","wgs84aX":"121.496095335564","wgs84aY":"25.0807960065378"},{"id":"188","spot_name":"新北市立圖書館三重五常分館3F_A","type":"NewTaipei","company":"中華電信","district":"三重區","address":"新北市三重區五華街7巷30號3樓","apparatus_name":"新北市政府文化局","latitude":"25.08079","longitude":"121.496026","twd97X":"300043.46","twd97Y":"2774818.56","wgs84aX":"121.496095335564","wgs84aY":"25.0807960065378"},{"id":"189","spot_name":"新北市立圖書館三重五常分館3F_B","type":"NewTaipei","company":"中華電信","district":"三重區","address":"新北市三重區五華街7巷30號3樓","apparatus_name":"新北市政府文化局","latitude":"25.08079","longitude":"121.496026","twd97X":"300043.46","twd97Y":"2774818.56","wgs84aX":"121.496095335564","wgs84aY":"25.0807960065378"},{"id":"190","spot_name":"新北市立圖書館三重分館1F_A","type":"NewTaipei","company":"中華電信","district":"三重區","address":"新北市三重區自強路1段158號1樓","apparatus_name":"新北市政府文化局","latitude":"25.065999900000001","longitude":"121.495992","twd97X":"300006.15","twd97Y":"2773207.01","wgs84aX":"121.495666827167","wgs84aY":"25.066248218228"},{"id":"191","spot_name":"新北市立圖書館三重分館1F_B","type":"NewTaipei","company":"中華電信","district":"三重區","address":"新北市三重區自強路1段158號1樓","apparatus_name":"新北市政府文化局","latitude":"25.065999900000001","longitude":"121.495992","twd97X":"300006.15","twd97Y":"2773207.01","wgs84aX":"121.495666827167","wgs84aY":"25.066248218228"},{"id":"192","spot_name":"新北市立圖書館三重分館3F-1_A","type":"NewTaipei","company":"中華電信","district":"三重區","address":"新北市三重區自強路1段158號3樓","apparatus_name":"新北市政府文化局","latitude":"25.065999900000001","longitude":"121.495992","twd97X":"300006.15","twd97Y":"2773207.01","wgs84aX":"121.495666827167","wgs84aY":"25.066248218228"},{"id":"193","spot_name":"新北市立圖書館三重分館3F-1_B","type":"NewTaipei","company":"中華電信","district":"三重區","address":"新北市三重區自強路1段158號3樓","apparatus_name":"新北市政府文化局","latitude":"25.065999900000001","longitude":"121.495992","twd97X":"300006.15","twd97Y":"2773207.01","wgs84aX":"121.495666827167","wgs84aY":"25.066248218228"},{"id":"194","spot_name":"新北市立圖書館三重分館3F-2_A","type":"NewTaipei","company":"中華電信","district":"三重區","address":"新北市三重區自強路1段158號3樓","apparatus_name":"新北市政府文化局","latitude":"25.065999900000001","longitude":"121.495992","twd97X":"300006.15","twd97Y":"2773207.01","wgs84aX":"121.495666827167","wgs84aY":"25.066248218228"},{"id":"195","spot_name":"新北市立圖書館三重分館3F-2_B","type":"NewTaipei","company":"中華電信","district":"三重區","address":"新北市三重區自強路1段158號3樓","apparatus_name":"新北市政府文化局","latitude":"25.065999900000001","longitude":"121.495992","twd97X":"300006.15","twd97Y":"2773207.01","wgs84aX":"121.495666827167","wgs84aY":"25.066248218228"},{"id":"196","spot_name":"新北市立圖書館三重田中分館2F","type":"NewTaipei","company":"中華電信","district":"三重區","address":"新北市三重區忠孝路3段40巷51號2樓","apparatus_name":"新北市政府文化局","latitude":"25.065531","longitude":"121.483024","twd97X":"298742.19","twd97Y":"2773123.82","wgs84aX":"121.483135757908","wgs84aY":"25.0655384378565"},{"id":"197","spot_name":"新北市立圖書館三重田中分館3F","type":"NewTaipei","company":"中華電信","district":"三重區","address":"新北市三重區忠孝路3段40巷51號3樓","apparatus_name":"新北市政府文化局","latitude":"25.065531","longitude":"121.483024","twd97X":"298742.19","twd97Y":"2773123.82","wgs84aX":"121.483135757908","wgs84aY":"25.0655384378565"},{"id":"198","spot_name":"新北市立圖書館三重田中分館4F","type":"NewTaipei","company":"中華電信","district":"三重區","address":"新北市三重區忠孝路3段40巷51號4樓","apparatus_name":"新北市政府文化局","latitude":"25.065531","longitude":"121.483024","twd97X":"298742.19","twd97Y":"2773123.82","wgs84aX":"121.483135757908","wgs84aY":"25.0655384378565"},{"id":"199","spot_name":"新北市立圖書館三重東區分館1F_A","type":"NewTaipei","company":"中華電信","district":"三重區","address":"新北市三重區溪尾街303號1樓","apparatus_name":"新北市政府文化局","latitude":"25.083628999999998","longitude":"121.48759699999999","twd97X":"299191.58","twd97Y":"2775133.8","wgs84aX":"121.487661839684","wgs84aY":"25.0836699650856"},{"id":"200","spot_name":"新北市立圖書館三重東區分館1F_B","type":"NewTaipei","company":"中華電信","district":"三重區","address":"新北市三重區溪尾街303號1樓","apparatus_name":"新北市政府文化局","latitude":"25.083628999999998","longitude":"121.48759699999999","twd97X":"299191.58","twd97Y":"2775133.8","wgs84aX":"121.487661839684","wgs84aY":"25.0836699650856"},{"id":"201","spot_name":"新北市立圖書館三重東區分館1F_C","type":"NewTaipei","company":"中華電信","district":"三重區","address":"新北市三重區溪尾街303號1樓","apparatus_name":"新北市政府文化局","latitude":"25.083628999999998","longitude":"121.48759699999999","twd97X":"299191.58","twd97Y":"2775133.8","wgs84aX":"121.487661839684","wgs84aY":"25.0836699650856"},{"id":"202","spot_name":"新北市立圖書館三重東區分館2F_A","type":"NewTaipei","company":"中華電信","district":"三重區","address":"新北市三重區溪尾街303號2樓","apparatus_name":"新北市政府文化局","latitude":"25.083628999999998","longitude":"121.48759699999999","twd97X":"299191.58","twd97Y":"2775133.8","wgs84aX":"121.487661839684","wgs84aY":"25.0836699650856"},{"id":"203","spot_name":"新北市立圖書館三重東區分館2F_B","type":"NewTaipei","company":"中華電信","district":"三重區","address":"新北市三重區溪尾街303號2樓","apparatus_name":"新北市政府文化局","latitude":"25.083628999999998","longitude":"121.48759699999999","twd97X":"299191.58","twd97Y":"2775133.8","wgs84aX":"121.487661839684","wgs84aY":"25.0836699650856"},{"id":"204","spot_name":"新北市立圖書館三重東區分館2F_C","type":"NewTaipei","company":"中華電信","district":"三重區","address":"新北市三重區溪尾街303號2樓","apparatus_name":"新北市政府文化局","latitude":"25.083628999999998","longitude":"121.48759699999999","twd97X":"299191.58","twd97Y":"2775133.8","wgs84aX":"121.487661839684","wgs84aY":"25.0836699650856"},{"id":"205","spot_name":"新北市立圖書館三重東區分館3F_A","type":"NewTaipei","company":"中華電信","district":"三重區","address":"新北市三重區溪尾街303號3樓","apparatus_name":"新北市政府文化局","latitude":"25.083628999999998","longitude":"121.48759699999999","twd97X":"299191.58","twd97Y":"2775133.8","wgs84aX":"121.487661839684","wgs84aY":"25.0836699650856"},{"id":"206","spot_name":"新北市立圖書館三重東區分館3F_B","type":"NewTaipei","company":"中華電信","district":"三重區","address":"新北市三重區溪尾街303號3樓","apparatus_name":"新北市政府文化局","latitude":"25.083628999999998","longitude":"121.48759699999999","twd97X":"299191.58","twd97Y":"2775133.8","wgs84aX":"121.487661839684","wgs84aY":"25.0836699650856"},{"id":"207","spot_name":"新北市立圖書館三重東區分館3F_C","type":"NewTaipei","company":"中華電信","district":"三重區","address":"新北市三重區溪尾街303號3樓","apparatus_name":"新北市政府文化局","latitude":"25.083628999999998","longitude":"121.48759699999999","twd97X":"299191.58","twd97Y":"2775133.8","wgs84aX":"121.487661839684","wgs84aY":"25.0836699650856"},{"id":"208","spot_name":"新北市立圖書館三重東區分館4F_A","type":"NewTaipei","company":"中華電信","district":"三重區","address":"新北市三重區溪尾街303號4樓","apparatus_name":"新北市政府文化局","latitude":"25.083628999999998","longitude":"121.48759699999999","twd97X":"299191.58","twd97Y":"2775133.8","wgs84aX":"121.487661839684","wgs84aY":"25.0836699650856"},{"id":"209","spot_name":"新北市立圖書館三重東區分館4F_B","type":"NewTaipei","company":"中華電信","district":"三重區","address":"新北市三重區溪尾街303號4樓","apparatus_name":"新北市政府文化局","latitude":"25.083628999999998","longitude":"121.48759699999999","twd97X":"299191.58","twd97Y":"2775133.8","wgs84aX":"121.487661839684","wgs84aY":"25.0836699650856"},{"id":"210","spot_name":"新北市立圖書館三重東區分館4F_C","type":"NewTaipei","company":"中華電信","district":"三重區","address":"新北市三重區溪尾街303號4樓","apparatus_name":"新北市政府文化局","latitude":"25.083628999999998","longitude":"121.48759699999999","twd97X":"299191.58","twd97Y":"2775133.8","wgs84aX":"121.487661839684","wgs84aY":"25.0836699650856"},{"id":"211","spot_name":"新北市立圖書館三重南區分館-1_A","type":"NewTaipei","company":"中華電信","district":"三重區","address":"新北市三重區重安街70號3樓","apparatus_name":"新北市政府文化局","latitude":"25.057233","longitude":"121.49157200000001","twd97X":"299575.21","twd97Y":"2772194.6","wgs84aX":"121.491359044274","wgs84aY":"25.0571224009789"},{"id":"212","spot_name":"新北市立圖書館三重南區分館-1_B","type":"NewTaipei","company":"中華電信","district":"三重區","address":"新北市三重區重安街70號3樓","apparatus_name":"新北市政府文化局","latitude":"25.057233","longitude":"121.49157200000001","twd97X":"299575.21","twd97Y":"2772194.6","wgs84aX":"121.491359044274","wgs84aY":"25.0571224009789"},{"id":"213","spot_name":"新北市立圖書館三重南區分館-2_A","type":"NewTaipei","company":"中華電信","district":"三重區","address":"新北市三重區重安街70號3樓","apparatus_name":"新北市政府文化局","latitude":"25.057233","longitude":"121.49157200000001","twd97X":"299575.21","twd97Y":"2772194.6","wgs84aX":"121.491359044274","wgs84aY":"25.0571224009789"},{"id":"214","spot_name":"新北市立圖書館三重南區分館-2_B","type":"NewTaipei","company":"中華電信","district":"三重區","address":"新北市三重區重安街70號3樓","apparatus_name":"新北市政府文化局","latitude":"25.057233","longitude":"121.49157200000001","twd97X":"299575.21","twd97Y":"2772194.6","wgs84aX":"121.491359044274","wgs84aY":"25.0571224009789"},{"id":"215","spot_name":"新北市立圖書館三重南區分館-3","type":"NewTaipei","company":"中華電信","district":"三重區","address":"新北市三重區重安街70號3樓","apparatus_name":"新北市政府文化局","latitude":"25.057233","longitude":"121.49157200000001","twd97X":"299575.21","twd97Y":"2772194.6","wgs84aX":"121.491359044274","wgs84aY":"25.0571224009789"},{"id":"216","spot_name":"新北市立圖書館三重區崇德分館2F_A","type":"NewTaipei","company":"中華電信","district":"三重區","address":"新北市三重區仁孝街62號2樓","apparatus_name":"新北市政府文化局","latitude":"25.074619999999999","longitude":"121.497257","twd97X":"300169.33","twd97Y":"2774117.09","wgs84aX":"121.497317414535","wgs84aY":"25.0744589906133"},{"id":"217","spot_name":"新北市立圖書館三重區崇德分館2F_B","type":"NewTaipei","company":"中華電信","district":"三重區","address":"新北市三重區仁孝街62號2樓","apparatus_name":"新北市政府文化局","latitude":"25.074619999999999","longitude":"121.497257","twd97X":"300169.33","twd97Y":"2774117.09","wgs84aX":"121.497317414535","wgs84aY":"25.0744589906133"},{"id":"218","spot_name":"新北市立圖書館三重區崇德分館3F_A","type":"NewTaipei","company":"中華電信","district":"三重區","address":"新北市三重區仁孝街62號3樓","apparatus_name":"新北市政府文化局","latitude":"25.074619999999999","longitude":"121.497257","twd97X":"300169.33","twd97Y":"2774117.09","wgs84aX":"121.497317414535","wgs84aY":"25.0744589906133"},{"id":"219","spot_name":"新北市立圖書館三重區崇德分館3F_B","type":"NewTaipei","company":"中華電信","district":"三重區","address":"新北市三重區仁孝街62號3樓","apparatus_name":"新北市政府文化局","latitude":"25.074619999999999","longitude":"121.497257","twd97X":"300169.33","twd97Y":"2774117.09","wgs84aX":"121.497317414535","wgs84aY":"25.0744589906133"},{"id":"220","spot_name":"新北市立圖書館三重培德分館1F","type":"NewTaipei","company":"中華電信","district":"三重區","address":"新北市三重區忠孝路2段35號1樓","apparatus_name":"新北市政府文化局","latitude":"25.071166999999999","longitude":"121.48621199999999","twd97X":"299025.31","twd97Y":"2773786.2","wgs84aX":"121.485965532657","wgs84aY":"25.0715092454224"},{"id":"221","spot_name":"新北市立圖書館三重培德分館2F","type":"NewTaipei","company":"中華電信","district":"三重區","address":"新北市三重區忠孝路2段35號2樓","apparatus_name":"新北市政府文化局","latitude":"25.071166999999999","longitude":"121.48621199999999","twd97X":"299025.31","twd97Y":"2773786.2","wgs84aX":"121.485965532657","wgs84aY":"25.0715092454224"},{"id":"222","spot_name":"新北市立圖書館三重培德分館B1","type":"NewTaipei","company":"中華電信","district":"三重區","address":"新北市三重區忠孝路2段35號B1","apparatus_name":"新北市政府文化局","latitude":"25.071166999999999","longitude":"121.48621199999999","twd97X":"299025.31","twd97Y":"2773786.2","wgs84aX":"121.485965532657","wgs84aY":"25.0715092454224"},{"id":"223","spot_name":"新北市立圖書館三峽分館1F-1","type":"NewTaipei","company":"中華電信","district":"三峽區","address":"新北市三峽區永安街9巷5號1樓","apparatus_name":"新北市政府文化局","latitude":"24.9297149","longitude":"121.376464","twd97X":"288021.2","twd97Y":"2758033.22","wgs84aX":"121.376455312824","wgs84aY":"24.9296054427264"},{"id":"224","spot_name":"新北市立圖書館三峽分館1F-2","type":"NewTaipei","company":"中華電信","district":"三峽區","address":"新北市三峽區永安街9巷5號1樓","apparatus_name":"新北市政府文化局","latitude":"24.9297149","longitude":"121.376464","twd97X":"288021.2","twd97Y":"2758033.22","wgs84aX":"121.376455312824","wgs84aY":"24.9296054427264"},{"id":"225","spot_name":"新北市立圖書館三峽分館2F-1","type":"NewTaipei","company":"中華電信","district":"三峽區","address":"新北市三峽區永安街9巷5號2樓","apparatus_name":"新北市政府文化局","latitude":"24.9297149","longitude":"121.376464","twd97X":"288021.2","twd97Y":"2758033.22","wgs84aX":"121.376455312824","wgs84aY":"24.9296054427264"},{"id":"226","spot_name":"新北市立圖書館三峽分館2F-2","type":"NewTaipei","company":"中華電信","district":"三峽區","address":"新北市三峽區永安街9巷5號2樓","apparatus_name":"新北市政府文化局","latitude":"24.9297149","longitude":"121.376464","twd97X":"288021.2","twd97Y":"2758033.22","wgs84aX":"121.376455312824","wgs84aY":"24.9296054427264"},{"id":"227","spot_name":"新北市立圖書館三峽分館3F-1","type":"NewTaipei","company":"中華電信","district":"三峽區","address":"新北市三峽區永安街9巷5號3樓","apparatus_name":"新北市政府文化局","latitude":"24.9297149","longitude":"121.376464","twd97X":"288021.2","twd97Y":"2758033.22","wgs84aX":"121.376455312824","wgs84aY":"24.9296054427264"},{"id":"228","spot_name":"新北市立圖書館三峽分館3F-2","type":"NewTaipei","company":"中華電信","district":"三峽區","address":"新北市三峽區永安街9巷5號3樓","apparatus_name":"新北市政府文化局","latitude":"24.9297149","longitude":"121.376464","twd97X":"288021.2","twd97Y":"2758033.22","wgs84aX":"121.376455312824","wgs84aY":"24.9296054427264"},{"id":"229","spot_name":"新北市立圖書館三峽北大分館3F-1_A","type":"NewTaipei","company":"中華電信","district":"三峽區","address":"新北市三峽區學成路396號3樓","apparatus_name":"新北市政府文化局","latitude":"24.944661","longitude":"121.377983","twd97X":"288149.58","twd97Y":"2759649.62","wgs84aX":"121.377770976549","wgs84aY":"24.9441955352772"},{"id":"230","spot_name":"新北市立圖書館三峽北大分館3F-1_B","type":"NewTaipei","company":"中華電信","district":"三峽區","address":"新北市三峽區學成路396號3樓","apparatus_name":"新北市政府文化局","latitude":"24.944661","longitude":"121.377983","twd97X":"288149.58","twd97Y":"2759649.62","wgs84aX":"121.377770976549","wgs84aY":"24.9441955352772"},{"id":"231","spot_name":"新北市立圖書館三峽北大分館3F-2_A","type":"NewTaipei","company":"中華電信","district":"三峽區","address":"新北市三峽區學成路396號3樓","apparatus_name":"新北市政府文化局","latitude":"24.944661","longitude":"121.377983","twd97X":"288149.58","twd97Y":"2759649.62","wgs84aX":"121.377770976549","wgs84aY":"24.9441955352772"},{"id":"232","spot_name":"新北市立圖書館三峽北大分館3F-2_B","type":"NewTaipei","company":"中華電信","district":"三峽區","address":"新北市三峽區學成路396號3樓","apparatus_name":"新北市政府文化局","latitude":"24.944661","longitude":"121.377983","twd97X":"288149.58","twd97Y":"2759649.62","wgs84aX":"121.377770976549","wgs84aY":"24.9441955352772"},{"id":"233","spot_name":"新北市立圖書館三峽北大分館4F","type":"NewTaipei","company":"中華電信","district":"三峽區","address":"新北市三峽區學成路396號4樓","apparatus_name":"新北市政府文化局","latitude":"24.944661","longitude":"121.377983","twd97X":"288149.58","twd97Y":"2759649.62","wgs84aX":"121.377770976549","wgs84aY":"24.9441955352772"},{"id":"234","spot_name":"新北市立圖書館土城分館-1","type":"NewTaipei","company":"中華電信","district":"土城區","address":"新北市土城區中正路18號3樓","apparatus_name":"新北市政府文化局","latitude":"24.974945999999999","longitude":"121.44301400000001","twd97X":"294726.77","twd97Y":"2763089.77","wgs84aX":"121.443010338837","wgs84aY":"24.9750743490154"},{"id":"235","spot_name":"新北市立圖書館土城分館7F_A","type":"NewTaipei","company":"中華電信","district":"土城區","address":"新北市土城區中正路18號7樓","apparatus_name":"新北市政府文化局","latitude":"24.974945999999999","longitude":"121.44301400000001","twd97X":"294726.77","twd97Y":"2763089.77","wgs84aX":"121.443010338837","wgs84aY":"24.9750743490154"},{"id":"236","spot_name":"新北市立圖書館土城分館7F_B","type":"NewTaipei","company":"中華電信","district":"土城區","address":"新北市土城區中正路18號7樓","apparatus_name":"新北市政府文化局","latitude":"24.974945999999999","longitude":"121.44301400000001","twd97X":"294726.77","twd97Y":"2763089.77","wgs84aX":"121.443010338837","wgs84aY":"24.9750743490154"},{"id":"237","spot_name":"新北市立圖書館土城分館7F_C","type":"NewTaipei","company":"中華電信","district":"土城區","address":"新北市土城區中正路18號7樓","apparatus_name":"新北市政府文化局","latitude":"24.974945999999999","longitude":"121.44301400000001","twd97X":"294726.77","twd97Y":"2763089.77","wgs84aX":"121.443010338837","wgs84aY":"24.9750743490154"},{"id":"238","spot_name":"新北市立圖書館土城柑林埤圖書閱覽室-1","type":"NewTaipei","company":"中華電信","district":"土城區","address":"新北市土城區學享街55號3樓","apparatus_name":"新北市政府文化局","latitude":"24.987082999999998","longitude":"121.45187799999999","twd97X":"295626.94","twd97Y":"2764417.41","wgs84aX":"121.45197003757","wgs84aY":"24.9870336841072"},{"id":"239","spot_name":"新北市立圖書館土城柑林埤圖書閱覽室-2","type":"NewTaipei","company":"中華電信","district":"土城區","address":"新北市土城區學享街55號3樓","apparatus_name":"新北市政府文化局","latitude":"24.987082999999998","longitude":"121.45187799999999","twd97X":"295626.94","twd97Y":"2764417.41","wgs84aX":"121.45197003757","wgs84aY":"24.9870336841072"},{"id":"240","spot_name":"新北市立圖書館土城祖田圖書閱覽室-1_A","type":"NewTaipei","company":"中華電信","district":"土城區","address":"新北市土城區中央路4段283-1號4樓","apparatus_name":"新北市政府文化局","latitude":"24.953946999999999","longitude":"121.412755","twd97X":"291589.05","twd97Y":"2760624.98","wgs84aX":"121.411858446652","wgs84aY":"24.9529109805406"},{"id":"241","spot_name":"新北市立圖書館土城祖田圖書閱覽室-1_B","type":"NewTaipei","company":"中華電信","district":"土城區","address":"新北市土城區中央路4段283-1號4樓","apparatus_name":"新北市政府文化局","latitude":"24.953946999999999","longitude":"121.412755","twd97X":"291589.05","twd97Y":"2760624.98","wgs84aX":"121.411858446652","wgs84aY":"24.9529109805406"},{"id":"242","spot_name":"新北市立圖書館土城祖田圖書閱覽室-2","type":"NewTaipei","company":"中華電信","district":"土城區","address":"新北市土城區中央路4段283-1號4樓","apparatus_name":"新北市政府文化局","latitude":"24.953946999999999","longitude":"121.412755","twd97X":"291589.05","twd97Y":"2760624.98","wgs84aX":"121.411858446652","wgs84aY":"24.9529109805406"},{"id":"243","spot_name":"新北市立圖書館土城清水圖書閱覽室2F_A","type":"NewTaipei","company":"中華電信","district":"土城區","address":"新北市土城區清水路243-1號2樓","apparatus_name":"新北市政府文化局","latitude":"24.983432000000001","longitude":"121.46149800000001","twd97X":"296585.74","twd97Y":"2764024.15","wgs84aX":"121.461454105462","wgs84aY":"24.9834540916149"},{"id":"244","spot_name":"新北市立圖書館土城清水圖書閱覽室2F_B","type":"NewTaipei","company":"中華電信","district":"土城區","address":"新北市土城區清水路243-1號2樓","apparatus_name":"新北市政府文化局","latitude":"24.983432000000001","longitude":"121.46149800000001","twd97X":"296585.74","twd97Y":"2764024.15","wgs84aX":"121.461454105462","wgs84aY":"24.9834540916149"},{"id":"245","spot_name":"新北市立圖書館土城清水圖書閱覽室B1","type":"NewTaipei","company":"中華電信","district":"土城區","address":"新北市土城區清水路243-1號B1","apparatus_name":"新北市政府文化局","latitude":"24.983432000000001","longitude":"121.46149800000001","twd97X":"296585.74","twd97Y":"2764024.15","wgs84aX":"121.461454105462","wgs84aY":"24.9834540916149"},{"id":"246","spot_name":"新北市立圖書館土城親子分館_A","type":"NewTaipei","company":"中華電信","district":"土城區","address":"新北市土城區中洲路28巷30號4樓","apparatus_name":"新北市政府文化局","latitude":"24.958172600000001","longitude":"121.4151617","twd97X":"294707.52","twd97Y":"2762812.42","wgs84aX":"121.442810687","wgs84aY":"24.9725709758"},{"id":"247","spot_name":"新北市立圖書館土城親子分館_B","type":"NewTaipei","company":"中華電信","district":"土城區","address":"新北市土城區中洲路28巷30號4樓","apparatus_name":"新北市政府文化局","latitude":"24.958172600000001","longitude":"121.4151617","twd97X":"294707.52","twd97Y":"2762812.42","wgs84aX":"121.442810687","wgs84aY":"24.9725709758"},{"id":"248","spot_name":"新北市立圖書館土城親子分館_C","type":"NewTaipei","company":"中華電信","district":"土城區","address":"新北市土城區中洲路28巷30號4樓","apparatus_name":"新北市政府文化局","latitude":"24.958172600000001","longitude":"121.4151617","twd97X":"294707.52","twd97Y":"2762812.42","wgs84aX":"121.442810687","wgs84aY":"24.9725709758"},{"id":"249","spot_name":"新北市立圖書館中和大同圖書閱覽室-1","type":"NewTaipei","company":"中華電信","district":"中和區","address":"新北市中和區圓通路121巷5號1樓","apparatus_name":"新北市政府文化局","latitude":"24.995588000000001","longitude":"121.499546","twd97X":"300438.51","twd97Y":"2765439.43","wgs84aX":"121.499668284995","wgs84aY":"24.9961081370222"},{"id":"250","spot_name":"新北市立圖書館中和大同圖書閱覽室-2","type":"NewTaipei","company":"中華電信","district":"中和區","address":"新北市中和區圓通路121巷5號1樓","apparatus_name":"新北市政府文化局","latitude":"24.995588000000001","longitude":"121.499546","twd97X":"300438.51","twd97Y":"2765439.43","wgs84aX":"121.499668284995","wgs84aY":"24.9961081370222"},{"id":"251","spot_name":"新北市立圖書館中和分館6F-1","type":"NewTaipei","company":"中華電信","district":"中和區","address":"新北市中和區南山路236號6樓","apparatus_name":"新北市政府文化局","latitude":"24.989720999999999","longitude":"121.50644699999999","twd97X":"301150.89","twd97Y":"2764733.13","wgs84aX":"121.506699030608","wgs84aY":"24.9897077288838"},{"id":"252","spot_name":"新北市立圖書館中和分館6F-2","type":"NewTaipei","company":"中華電信","district":"中和區","address":"新北市中和區南山路236號6樓","apparatus_name":"新北市政府文化局","latitude":"24.989720999999999","longitude":"121.50644699999999","twd97X":"301150.89","twd97Y":"2764733.13","wgs84aX":"121.506699030608","wgs84aY":"24.9897077288838"},{"id":"253","spot_name":"新北市立圖書館中和分館6F-3","type":"NewTaipei","company":"中華電信","district":"中和區","address":"新北市中和區南山路236號6樓","apparatus_name":"新北市政府文化局","latitude":"24.989720999999999","longitude":"121.50644699999999","twd97X":"301150.89","twd97Y":"2764733.13","wgs84aX":"121.506699030608","wgs84aY":"24.9897077288838"},{"id":"254","spot_name":"新北市立圖書館中和分館7F_A","type":"NewTaipei","company":"中華電信","district":"中和區","address":"新北市中和區南山路236號7樓","apparatus_name":"新北市政府文化局","latitude":"24.989720999999999","longitude":"121.50644699999999","twd97X":"301150.89","twd97Y":"2764733.13","wgs84aX":"121.506699030608","wgs84aY":"24.9897077288838"},{"id":"255","spot_name":"新北市立圖書館中和分館7F_B","type":"NewTaipei","company":"中華電信","district":"中和區","address":"新北市中和區南山路236號7樓","apparatus_name":"新北市政府文化局","latitude":"24.989720999999999","longitude":"121.50644699999999","twd97X":"301150.89","twd97Y":"2764733.13","wgs84aX":"121.506699030608","wgs84aY":"24.9897077288838"},{"id":"256","spot_name":"新北市立圖書館中和員山分館2F_A","type":"NewTaipei","company":"中華電信","district":"中和區","address":"新北市中和區民享街37號2樓","apparatus_name":"新北市政府文化局","latitude":"25.003546100000001","longitude":"121.4741203","twd97X":"297857.6","twd97Y":"2766256.96","wgs84aX":"121.474129530691","wgs84aY":"25.003572523065"},{"id":"257","spot_name":"新北市立圖書館中和員山分館2F_B","type":"NewTaipei","company":"中華電信","district":"中和區","address":"新北市中和區民享街37號2樓","apparatus_name":"新北市政府文化局","latitude":"25.003546100000001","longitude":"121.4741203","twd97X":"297857.6","twd97Y":"2766256.96","wgs84aX":"121.474129530691","wgs84aY":"25.003572523065"},{"id":"258","spot_name":"新北市立圖書館五股分館3F_A","type":"NewTaipei","company":"中華電信","district":"五股區","address":"新北市五股區工商路1號3樓","apparatus_name":"新北市政府文化局","latitude":"25.082222600000001","longitude":"121.44010040000001","twd97X":"294365.77","twd97Y":"2774984.05","wgs84aX":"121.439817428908","wgs84aY":"25.0824674722815"},{"id":"259","spot_name":"新北市立圖書館五股分館3F_B","type":"NewTaipei","company":"中華電信","district":"五股區","address":"新北市五股區工商路1號3樓","apparatus_name":"新北市政府文化局","latitude":"25.082222600000001","longitude":"121.44010040000001","twd97X":"294365.77","twd97Y":"2774984.05","wgs84aX":"121.439817428908","wgs84aY":"25.0824674722815"},{"id":"260","spot_name":"新北市立圖書館五股分館3F_C","type":"NewTaipei","company":"中華電信","district":"五股區","address":"新北市五股區工商路1號3樓","apparatus_name":"新北市政府文化局","latitude":"25.082222600000001","longitude":"121.44010040000001","twd97X":"294365.77","twd97Y":"2774984.05","wgs84aX":"121.439817428908","wgs84aY":"25.0824674722815"},{"id":"261","spot_name":"新北市立圖書館五股分館4F","type":"NewTaipei","company":"中華電信","district":"五股區","address":"新北市五股區工商路1號4樓","apparatus_name":"新北市政府文化局","latitude":"25.082222600000001","longitude":"121.44010040000001","twd97X":"294365.77","twd97Y":"2774984.05","wgs84aX":"121.439817428908","wgs84aY":"25.0824674722815"},{"id":"262","spot_name":"新北市立圖書館五股水碓分館3F_A","type":"NewTaipei","company":"中華電信","district":"五股區","address":"新北市五股區明德路10號3樓","apparatus_name":"新北市政府文化局","latitude":"25.071421999999998","longitude":"121.43342","twd97X":"293727.56","twd97Y":"2773771.4","wgs84aX":"121.433452215053","wgs84aY":"25.0715382736345"},{"id":"263","spot_name":"新北市立圖書館五股水碓分館3F_B","type":"NewTaipei","company":"中華電信","district":"五股區","address":"新北市五股區明德路10號3樓","apparatus_name":"新北市政府文化局","latitude":"25.071421999999998","longitude":"121.43342","twd97X":"293727.56","twd97Y":"2773771.4","wgs84aX":"121.433452215053","wgs84aY":"25.0715382736345"},{"id":"264","spot_name":"新北市立圖書館五股水碓分館4F_A","type":"NewTaipei","company":"中華電信","district":"五股區","address":"新北市五股區明德路10號4樓","apparatus_name":"新北市政府文化局","latitude":"25.071421999999998","longitude":"121.43342","twd97X":"293727.56","twd97Y":"2773771.4","wgs84aX":"121.433452215053","wgs84aY":"25.0715382736345"},{"id":"265","spot_name":"新北市立圖書館五股水碓分館4F_B","type":"NewTaipei","company":"中華電信","district":"五股區","address":"新北市五股區明德路10號4樓","apparatus_name":"新北市政府文化局","latitude":"25.071421999999998","longitude":"121.43342","twd97X":"293727.56","twd97Y":"2773771.4","wgs84aX":"121.433452215053","wgs84aY":"25.0715382736345"},{"id":"266","spot_name":"新北市立圖書館五股成功分館4F_A","type":"NewTaipei","company":"中華電信","district":"五股區","address":"新北市五股區西雲路165號4樓","apparatus_name":"新北市政府文化局","latitude":"25.094833999999999","longitude":"121.446805","twd97X":"295028.64","twd97Y":"2776329.84","wgs84aX":"121.44643265252","wgs84aY":"25.0945976437264"},{"id":"267","spot_name":"新北市立圖書館五股成功分館4F_B","type":"NewTaipei","company":"中華電信","district":"五股區","address":"新北市五股區西雲路165號4樓","apparatus_name":"新北市政府文化局","latitude":"25.094833999999999","longitude":"121.446805","twd97X":"295028.64","twd97Y":"2776329.84","wgs84aX":"121.44643265252","wgs84aY":"25.0945976437264"},{"id":"268","spot_name":"新北市立圖書館五股成功分館5F_A","type":"NewTaipei","company":"中華電信","district":"五股區","address":"新北市五股區西雲路165號5樓","apparatus_name":"新北市政府文化局","latitude":"25.094833999999999","longitude":"121.446805","twd97X":"295028.64","twd97Y":"2776329.84","wgs84aX":"121.44643265252","wgs84aY":"25.0945976437264"},{"id":"269","spot_name":"新北市立圖書館五股成功分館5F_B","type":"NewTaipei","company":"中華電信","district":"五股區","address":"新北市五股區西雲路165號5樓","apparatus_name":"新北市政府文化局","latitude":"25.094833999999999","longitude":"121.446805","twd97X":"295028.64","twd97Y":"2776329.84","wgs84aX":"121.44643265252","wgs84aY":"25.0945976437264"},{"id":"270","spot_name":"新北市立圖書館五股成功分館6F_A","type":"NewTaipei","company":"中華電信","district":"五股區","address":"新北市五股區西雲路165號6樓","apparatus_name":"新北市政府文化局","latitude":"25.094833999999999","longitude":"121.446805","twd97X":"295028.64","twd97Y":"2776329.84","wgs84aX":"121.44643265252","wgs84aY":"25.0945976437264"},{"id":"271","spot_name":"新北市立圖書館五股成功分館6F_B","type":"NewTaipei","company":"中華電信","district":"五股區","address":"新北市五股區西雲路165號6樓","apparatus_name":"新北市政府文化局","latitude":"25.094833999999999","longitude":"121.446805","twd97X":"295028.64","twd97Y":"2776329.84","wgs84aX":"121.44643265252","wgs84aY":"25.0945976437264"},{"id":"272","spot_name":"新北市立圖書館五股成州圖書閱覽室_A","type":"NewTaipei","company":"中華電信","district":"五股區","address":"新北市五股區西雲路267號2樓","apparatus_name":"新北市政府文化局","latitude":"25.098002600000001","longitude":"121.449324","twd97X":"295322.09","twd97Y":"2776718.66","wgs84aX":"121.449354795193","wgs84aY":"25.0980990998936"},{"id":"273","spot_name":"新北市立圖書館五股成州圖書閱覽室_B","type":"NewTaipei","company":"中華電信","district":"五股區","address":"新北市五股區西雲路267號2樓","apparatus_name":"新北市政府文化局","latitude":"25.098002600000001","longitude":"121.449324","twd97X":"295322.09","twd97Y":"2776718.66","wgs84aX":"121.449354795193","wgs84aY":"25.0980990998936"},{"id":"274","spot_name":"新北市立圖書館五股更新圖書閱覽室","type":"NewTaipei","company":"中華電信","district":"五股區","address":"新北市五股區更洲路47號3樓","apparatus_name":"新北市政府文化局","latitude":"25.079443699999999","longitude":"121.4571909","twd97X":"296126.57","twd97Y":"2774646.37","wgs84aX":"121.457261278021","wgs84aY":"25.0793661181874"},{"id":"275","spot_name":"新北市立圖書館平溪分館_A","type":"NewTaipei","company":"中華電信","district":"平溪區","address":"新北市平溪區公園街17號4樓","apparatus_name":"新北市政府文化局","latitude":"25.024760000000001","longitude":"121.73701800000001","twd97X":"324397.88","twd97Y":"2768713.69","wgs84aX":"121.737184861596","wgs84aY":"25.0246805371994"},{"id":"276","spot_name":"新北市立圖書館平溪分館_B","type":"NewTaipei","company":"中華電信","district":"平溪區","address":"新北市平溪區公園街17號4樓","apparatus_name":"新北市政府文化局","latitude":"25.024760000000001","longitude":"121.73701800000001","twd97X":"324397.88","twd97Y":"2768713.69","wgs84aX":"121.737184861596","wgs84aY":"25.0246805371994"},{"id":"277","spot_name":"新北市立圖書館永和分館2F","type":"NewTaipei","company":"中華電信","district":"永和區","address":"新北市永和區國光路2號2樓","apparatus_name":"新北市政府文化局","latitude":"25.008606","longitude":"121.51974300000001","twd97X":"302478.8","twd97Y":"2766837.03","wgs84aX":"121.519932847389","wgs84aY":"25.0086564575559"},{"id":"278","spot_name":"新北市立圖書館永和分館3F","type":"NewTaipei","company":"中華電信","district":"永和區","address":"新北市永和區國光路2號2、3樓","apparatus_name":"新北市政府文化局","latitude":"25.008606","longitude":"121.51974300000001","twd97X":"302478.8","twd97Y":"2766837.03","wgs84aX":"121.519932847389","wgs84aY":"25.0086564575559"},{"id":"279","spot_name":"新北市立圖書館永和分館4F","type":"NewTaipei","company":"中華電信","district":"永和區","address":"新北市永和區國光路2號4樓","apparatus_name":"新北市政府文化局","latitude":"25.008607000000001","longitude":"121.519744","twd97X":"302478.8","twd97Y":"2766837.03","wgs84aX":"121.519932847389","wgs84aY":"25.0086564575559"},{"id":"280","spot_name":"新北市立圖書館永和民權分館7F-1","type":"NewTaipei","company":"中華電信","district":"永和區","address":"新北市永和區民權路60號7樓","apparatus_name":"新北市政府文化局","latitude":"24.997801899999999","longitude":"121.51992","twd97X":"302482.1","twd97Y":"2765658.62","wgs84aX":"121.519920709433","wgs84aY":"24.9980176376539"},{"id":"281","spot_name":"新北市立圖書館永和民權分館7F-2","type":"NewTaipei","company":"中華電信","district":"永和區","address":"新北市永和區民權路60號7樓","apparatus_name":"新北市政府文化局","latitude":"24.997801899999999","longitude":"121.51992","twd97X":"302482.1","twd97Y":"2765658.62","wgs84aX":"121.519920709433","wgs84aY":"24.9980176376539"},{"id":"282","spot_name":"新北市立圖書館永和民權分館8F-1","type":"NewTaipei","company":"中華電信","district":"永和區","address":"新北市永和區民權路60號8樓","apparatus_name":"新北市政府文化局","latitude":"24.997801899999999","longitude":"121.51992","twd97X":"302482.1","twd97Y":"2765658.62","wgs84aX":"121.519920709433","wgs84aY":"24.9980176376539"},{"id":"283","spot_name":"新北市立圖書館永和民權分館8F-2","type":"NewTaipei","company":"中華電信","district":"永和區","address":"新北市永和區民權路60號8樓","apparatus_name":"新北市政府文化局","latitude":"24.997802","longitude":"121.51993","twd97X":"302482.1","twd97Y":"2765658.62","wgs84aX":"121.519920709433","wgs84aY":"24.9980176376539"},{"id":"284","spot_name":"新北市立圖書館永和民權分館8F-3_A","type":"NewTaipei","company":"中華電信","district":"永和區","address":"新北市永和區民權路60號B1樓","apparatus_name":"新北市政府文化局","latitude":"24.997801899999999","longitude":"121.51992","twd97X":"302482.1","twd97Y":"2765658.62","wgs84aX":"121.519920709433","wgs84aY":"24.9980176376539"},{"id":"285","spot_name":"新北市立圖書館永和民權分館8F-3_B","type":"NewTaipei","company":"中華電信","district":"永和區","address":"新北市永和區民權路60號B1樓","apparatus_name":"新北市政府文化局","latitude":"24.997801899999999","longitude":"121.51992","twd97X":"302482.1","twd97Y":"2765658.62","wgs84aX":"121.519920709433","wgs84aY":"24.9980176376539"},{"id":"286","spot_name":"新北市立圖書館永和忠孝圖書閱覽室","type":"NewTaipei","company":"中華電信","district":"永和區","address":"新北市永和區忠孝街26巷8號3樓","apparatus_name":"新北市政府文化局","latitude":"25.016863000000001","longitude":"121.515265","twd97X":"302008.94","twd97Y":"2767743.5","wgs84aX":"121.515311935055","wgs84aY":"25.0168562624131"},{"id":"287","spot_name":"新北市立圖書館永和保生分館5F-1","type":"NewTaipei","company":"中華電信","district":"永和區","address":"新北市永和區新生路218號5樓","apparatus_name":"新北市政府文化局","latitude":"25.013131600000001","longitude":"121.5054731","twd97X":"300992.94","twd97Y":"2767308.95","wgs84aX":"121.505229532459","wgs84aY":"25.012967682203"},{"id":"288","spot_name":"新北市立圖書館永和保生分館5F-2","type":"NewTaipei","company":"中華電信","district":"永和區","address":"新北市永和區新生路218號5樓","apparatus_name":"新北市政府文化局","latitude":"25.013131600000001","longitude":"121.5054731","twd97X":"300992.94","twd97Y":"2767308.95","wgs84aX":"121.505229532459","wgs84aY":"25.012967682203"},{"id":"289","spot_name":"新北市立圖書館永和保生分館6F_A","type":"NewTaipei","company":"中華電信","district":"永和區","address":"新北市永和區新生路218號6樓","apparatus_name":"新北市政府文化局","latitude":"25.013131600000001","longitude":"121.5054731","twd97X":"300992.94","twd97Y":"2767308.95","wgs84aX":"121.505229532459","wgs84aY":"25.012967682203"},{"id":"290","spot_name":"新北市立圖書館永和保生分館6F_B","type":"NewTaipei","company":"中華電信","district":"永和區","address":"新北市永和區新生路218號6樓","apparatus_name":"新北市政府文化局","latitude":"25.013131600000001","longitude":"121.5054731","twd97X":"300992.94","twd97Y":"2767308.95","wgs84aX":"121.505229532459","wgs84aY":"25.012967682203"},{"id":"291","spot_name":"新北市立圖書館永和親子圖書閱覽室","type":"NewTaipei","company":"中華電信","district":"永和區","address":"新北市永和區保安路132號2樓","apparatus_name":"新北市政府文化局","latitude":"25.015370000000001","longitude":"121.5089079","twd97X":"301359.28","twd97Y":"2767579.12","wgs84aX":"121.508869134768","wgs84aY":"25.0153943866013"},{"id":"292","spot_name":"新北市立圖書館石門分館-1","type":"NewTaipei","company":"中華電信","district":"石門區","address":"新北市石門區尖鹿里中央路9-3號1樓","apparatus_name":"新北市政府文化局","latitude":"25.291820999999999","longitude":"121.566852","twd97X":"307110.04","twd97Y":"2798235.47","wgs84aX":"121.567123681091","wgs84aY":"25.2919464431342"},{"id":"293","spot_name":"新北市立圖書館石門分館-2","type":"NewTaipei","company":"中華電信","district":"石門區","address":"新北市石門區尖鹿里中央路9-3號1樓","apparatus_name":"新北市政府文化局","latitude":"25.291820999999999","longitude":"121.566852","twd97X":"307110.04","twd97Y":"2798235.47","wgs84aX":"121.567123681091","wgs84aY":"25.2919464431342"},{"id":"294","spot_name":"新北市立圖書館石門分館-3","type":"NewTaipei","company":"中華電信","district":"石門區","address":"新北市石門區尖鹿里中央路9-3號1樓","apparatus_name":"新北市政府文化局","latitude":"25.291820999999999","longitude":"121.566852","twd97X":"307110.04","twd97Y":"2798235.47","wgs84aX":"121.567123681091","wgs84aY":"25.2919464431342"},{"id":"295","spot_name":"新北市立圖書館石碇分館2F-1","type":"NewTaipei","company":"中華電信","district":"石碇區","address":"新北市石碇區碇坪路1段65號2樓","apparatus_name":"新北市政府文化局","latitude":"24.991337999999999","longitude":"121.660538","twd97X":"316633.5","twd97Y":"2765004.32","wgs84aX":"121.660075319316","wgs84aY":"24.9915548063027"},{"id":"296","spot_name":"新北市立圖書館石碇分館2F-2","type":"NewTaipei","company":"中華電信","district":"石碇區","address":"新北市石碇區碇坪路1段65號2樓","apparatus_name":"新北市政府文化局","latitude":"24.991337999999999","longitude":"121.660538","twd97X":"316633.5","twd97Y":"2765004.32","wgs84aX":"121.660075319316","wgs84aY":"24.9915548063027"},{"id":"297","spot_name":"新北市立圖書館石碇分館2F-3","type":"NewTaipei","company":"中華電信","district":"石碇區","address":"新北市石碇區碇坪路1段65號2樓","apparatus_name":"新北市政府文化局","latitude":"24.991337999999999","longitude":"121.660538","twd97X":"316633.5","twd97Y":"2765004.32","wgs84aX":"121.660075319316","wgs84aY":"24.9915548063027"},{"id":"298","spot_name":"新北市立圖書館汐止大同分館1F","type":"NewTaipei","company":"中華電信","district":"汐止區","address":"新北市汐止區大同路2段451號1樓","apparatus_name":"新北市政府文化局","latitude":"25.067775999999999","longitude":"121.659206","twd97X":"316537.74","twd97Y":"2773490.29","wgs84aX":"121.659536135401","wgs84aY":"25.0681681861139"},{"id":"299","spot_name":"新北市立圖書館汐止大同分館2F-1","type":"NewTaipei","company":"中華電信","district":"汐止區","address":"新北市汐止區大同路2段451號2樓","apparatus_name":"新北市政府文化局","latitude":"25.067775999999999","longitude":"121.659206","twd97X":"316537.74","twd97Y":"2773490.29","wgs84aX":"121.659536135401","wgs84aY":"25.0681681861139"},{"id":"300","spot_name":"新北市立圖書館汐止大同分館2F-2","type":"NewTaipei","company":"中華電信","district":"汐止區","address":"新北市汐止區大同路2段451號2樓","apparatus_name":"新北市政府文化局","latitude":"25.067775999999999","longitude":"121.659206","twd97X":"316537.74","twd97Y":"2773490.29","wgs84aX":"121.659536135401","wgs84aY":"25.0681681861139"},{"id":"301","spot_name":"新北市立圖書館汐止大同分館3F","type":"NewTaipei","company":"中華電信","district":"汐止區","address":"新北市汐止區大同路2段451號3樓","apparatus_name":"新北市政府文化局","latitude":"25.067777","longitude":"121.65920699999999","twd97X":"316537.74","twd97Y":"2773490.29","wgs84aX":"121.659536135401","wgs84aY":"25.0681681861139"},{"id":"302","spot_name":"新北市立圖書館汐止分館-1_A","type":"NewTaipei","company":"中華電信","district":"汐止區","address":"新北市汐止區新台五路1段268號5樓","apparatus_name":"新北市政府文化局","latitude":"25.064119000000002","longitude":"121.65853300000001","twd97X":"316485.13","twd97Y":"2773012.04","wgs84aX":"121.658991603488","wgs84aY":"25.0638529470395"},{"id":"303","spot_name":"新北市立圖書館汐止分館-1_B","type":"NewTaipei","company":"中華電信","district":"汐止區","address":"新北市汐止區新台五路1段268號5樓","apparatus_name":"新北市政府文化局","latitude":"25.064119000000002","longitude":"121.65853300000001","twd97X":"316485.13","twd97Y":"2773012.04","wgs84aX":"121.658991603488","wgs84aY":"25.0638529470395"},{"id":"304","spot_name":"新北市立圖書館汐止分館-1_C","type":"NewTaipei","company":"中華電信","district":"汐止區","address":"新北市汐止區新台五路1段268號5樓","apparatus_name":"新北市政府文化局","latitude":"25.064119000000002","longitude":"121.65853300000001","twd97X":"316485.13","twd97Y":"2773012.04","wgs84aX":"121.658991603488","wgs84aY":"25.0638529470395"},{"id":"305","spot_name":"新北市立圖書館汐止分館-2_A","type":"NewTaipei","company":"中華電信","district":"汐止區","address":"新北市汐止區新台五路1段268號5樓","apparatus_name":"新北市政府文化局","latitude":"25.064119000000002","longitude":"121.65853300000001","twd97X":"316485.13","twd97Y":"2773012.04","wgs84aX":"121.658991603488","wgs84aY":"25.0638529470395"},{"id":"306","spot_name":"新北市立圖書館汐止分館-2_B","type":"NewTaipei","company":"中華電信","district":"汐止區","address":"新北市汐止區新台五路1段268號5樓","apparatus_name":"新北市政府文化局","latitude":"25.064119000000002","longitude":"121.65853300000001","twd97X":"316485.13","twd97Y":"2773012.04","wgs84aX":"121.658991603488","wgs84aY":"25.0638529470395"},{"id":"307","spot_name":"新北市立圖書館汐止北峰圖書閱覽室-1","type":"NewTaipei","company":"中華電信","district":"汐止區","address":"新北市汐止區福德一路272巷5號1樓","apparatus_name":"新北市政府文化局","latitude":"25.0641386","longitude":"121.6318296","twd97X":"313732.36","twd97Y":"2773013.96","wgs84aX":"121.631707948689","wgs84aY":"25.0639888658805"},{"id":"308","spot_name":"新北市立圖書館汐止北峰圖書閱覽室-2","type":"NewTaipei","company":"中華電信","district":"汐止區","address":"新北市汐止區福德一路272巷5號1樓","apparatus_name":"新北市政府文化局","latitude":"25.0641386","longitude":"121.6318296","twd97X":"313732.36","twd97Y":"2773013.96","wgs84aX":"121.631707948689","wgs84aY":"25.0639888658805"},{"id":"309","spot_name":"新北市立圖書館汐止江北分館-1","type":"NewTaipei","company":"中華電信","district":"汐止區","address":"新北市汐止區汐萬路1段81號1樓","apparatus_name":"新北市政府文化局","latitude":"25.069794000000002","longitude":"121.65470999999999","twd97X":"316028.12","twd97Y":"2773699.36","wgs84aX":"121.654495022639","wgs84aY":"25.0700779638166"},{"id":"310","spot_name":"新北市立圖書館汐止江北分館-2","type":"NewTaipei","company":"中華電信","district":"汐止區","address":"新北市汐止區汐萬路1段81號1樓","apparatus_name":"新北市政府文化局","latitude":"25.069794000000002","longitude":"121.65470999999999","twd97X":"316028.12","twd97Y":"2773699.36","wgs84aX":"121.654495022639","wgs84aY":"25.0700779638166"},{"id":"311","spot_name":"新北市立圖書館汐止長安分館","type":"NewTaipei","company":"中華電信","district":"汐止區","address":"新北市汐止區長興街1段50號3樓","apparatus_name":"新北市政府文化局","latitude":"25.079073000000001","longitude":"121.67052839999999","twd97X":"317645.45","twd97Y":"2774706.35","wgs84aX":"121.670575169554","wgs84aY":"25.0790971733019"},{"id":"312","spot_name":"新北市立圖書館汐止茄苳分館-1","type":"NewTaipei","company":"中華電信","district":"汐止區","address":"新北市汐止區茄苳路225巷35號1樓","apparatus_name":"新北市政府文化局","latitude":"25.069254999999998","longitude":"121.67205800000001","twd97X":"317798.3","twd97Y":"2773605.33","wgs84aX":"121.672036128219","wgs84aY":"25.0691507090492"},{"id":"313","spot_name":"新北市立圖書館汐止茄苳分館-2","type":"NewTaipei","company":"中華電信","district":"汐止區","address":"新北市汐止區茄苳路225巷35號1樓","apparatus_name":"新北市政府文化局","latitude":"25.069254999999998","longitude":"121.67205800000001","twd97X":"317798.3","twd97Y":"2773605.33","wgs84aX":"121.672036128219","wgs84aY":"25.0691507090492"},{"id":"314","spot_name":"新北市立圖書館汐止橫科圖書閱覽室","type":"NewTaipei","company":"中華電信","district":"汐止區","address":"新北市汐止區橫科路119號3樓","apparatus_name":"新北市政府文化局","latitude":"25.050647000000001","longitude":"121.619867","twd97X":"312572.9","twd97Y":"2771516.83","wgs84aX":"121.620148042928","wgs84aY":"25.0505215989947"},{"id":"315","spot_name":"新北市立圖書館坪林分館1F","type":"NewTaipei","company":"中華電信","district":"坪林區","address":"新北市坪林區國中路3號1樓","apparatus_name":"新北市政府文化局","latitude":"24.936986999999998","longitude":"121.712689","twd97X":"321981.6","twd97Y":"2758993","wgs84aX":"121.712738196955","wgs84aY":"24.9370418272903"},{"id":"316","spot_name":"新北市立圖書館坪林分館2F","type":"NewTaipei","company":"中華電信","district":"坪林區","address":"新北市坪林區國中路3號2樓","apparatus_name":"新北市政府文化局","latitude":"24.936986999999998","longitude":"121.712689","twd97X":"321981.6","twd97Y":"2758993","wgs84aX":"121.712738196955","wgs84aY":"24.9370418272903"},{"id":"317","spot_name":"新北市立圖書館坪林分館3F","type":"NewTaipei","company":"中華電信","district":"坪林區","address":"新北市坪林區國中路3號3樓","apparatus_name":"新北市政府文化局","latitude":"24.936986999999998","longitude":"121.712689","twd97X":"321981.6","twd97Y":"2758993","wgs84aX":"121.712738196955","wgs84aY":"24.9370418272903"},{"id":"318","spot_name":"新北市立圖書館板橋分館1F-1","type":"NewTaipei","company":"中華電信","district":"板橋區","address":"新北市板橋區文化路1段23號1樓","apparatus_name":"新北市政府文化局","latitude":"25.010842","longitude":"121.458265","twd97X":"296246.84","twd97Y":"2767052.68","wgs84aX":"121.458198682756","wgs84aY":"25.0108063243914"},{"id":"319","spot_name":"新北市立圖書館板橋分館1F-2","type":"NewTaipei","company":"中華電信","district":"板橋區","address":"新北市板橋區文化路1段23號1樓","apparatus_name":"新北市政府文化局","latitude":"25.010842","longitude":"121.458265","twd97X":"296246.84","twd97Y":"2767052.68","wgs84aX":"121.458198682756","wgs84aY":"25.0108063243914"},{"id":"320","spot_name":"新北市立圖書館板橋分館1F-3","type":"NewTaipei","company":"中華電信","district":"板橋區","address":"新北市板橋區文化路1段23號1樓","apparatus_name":"新北市政府文化局","latitude":"25.010842","longitude":"121.458265","twd97X":"296246.84","twd97Y":"2767052.68","wgs84aX":"121.458198682756","wgs84aY":"25.0108063243914"},{"id":"321","spot_name":"新北市立圖書館板橋分館2F-1","type":"NewTaipei","company":"中華電信","district":"板橋區","address":"新北市板橋區文化路1段23號2樓","apparatus_name":"新北市政府文化局","latitude":"25.010842","longitude":"121.458265","twd97X":"296246.84","twd97Y":"2767052.68","wgs84aX":"121.458198682756","wgs84aY":"25.0108063243914"},{"id":"322","spot_name":"新北市立圖書館板橋分館2F-2","type":"NewTaipei","company":"中華電信","district":"板橋區","address":"新北市板橋區文化路1段23號2樓","apparatus_name":"新北市政府文化局","latitude":"25.010842","longitude":"121.458265","twd97X":"296246.84","twd97Y":"2767052.68","wgs84aX":"121.458198682756","wgs84aY":"25.0108063243914"},{"id":"323","spot_name":"新北市立圖書館板橋分館2F-3","type":"NewTaipei","company":"中華電信","district":"板橋區","address":"新北市板橋區文化路1段23號2樓","apparatus_name":"新北市政府文化局","latitude":"25.010842","longitude":"121.458265","twd97X":"296246.84","twd97Y":"2767052.68","wgs84aX":"121.458198682756","wgs84aY":"25.0108063243914"},